country,state,city,station,last_update,latitude,longitude,pollutant_id,pollutant_min,pollutant_max,pollutant_avg
India,Bihar,Begusarai,"Lohiyanagar, Begusarai - BSPCB","27-11-2025 09:00:00",25.42742023,86.13886079,NH3,4,5,5
India,Bihar,Bettiah,"Kamalnath Nagar, Bettiah - BSPCB","27-11-2025 09:00:00",26.80365,84.51954,PM2.5,41,223,102
India,Bihar,Bhagalpur,"DM Office_Kachari Chowk, Bhagalpur - BSPCB","27-11-2025 09:00:00",25.251013,86.989001,NO2,6,11,8
India,Bihar,Bhagalpur,"Mayaganj, Bhagalpur - BSPCB","27-11-2025 09:00:00",25.265194,87.012947,PM2.5,54,113,80
India,Bihar,Bhagalpur,"Mayaganj, Bhagalpur - BSPCB","27-11-2025 09:00:00",25.265194,87.012947,NH3,8,15,11
India,Bihar,Bhagalpur,"Mayaganj, Bhagalpur - BSPCB","27-11-2025 09:00:00",25.265194,87.012947,SO2,40,72,54
India,Bihar,Bhagalpur,"Mayaganj, Bhagalpur - BSPCB","27-11-2025 09:00:00",25.265194,87.012947,CO,58,103,77
India,Bihar,"Bihar Sharif","D M Colony, Bihar Sharif - BSPCB","27-11-2025 09:00:00",25.204762,85.514960,PM2.5,41,200,96
India,Bihar,"Bihar Sharif","D M Colony, Bihar Sharif - BSPCB","27-11-2025 09:00:00",25.204762,85.514960,SO2,10,10,10
India,Andhra_Pradesh,Vijayawada,"HB Colony, Vijayawada - APPCB","27-11-2025 09:00:00",16.536107,80.594233,SO2,9,17,11
India,Andhra_Pradesh,Vijayawada,"Rajiv Nagar, Vijayawada - APPCB","27-11-2025 09:00:00",16.554731,80.649110,SO2,11,29,18
India,Andhra_Pradesh,Visakhapatnam,"GVM Corporation, Visakhapatnam - APPCB","27-11-2025 09:00:00",17.72,83.3,PM2.5,NA,NA,NA
India,Andhra_Pradesh,Visakhapatnam,"GVM Corporation, Visakhapatnam - APPCB","27-11-2025 09:00:00",17.72,83.3,PM10,NA,NA,NA
India,Andhra_Pradesh,Visakhapatnam,"GVM Corporation, Visakhapatnam - APPCB","27-11-2025 09:00:00",17.72,83.3,SO2,NA,NA,NA
India,Arunachal_Pradesh,Naharlagun,"Naharlagun, Naharlagun - APSPCB","27-11-2025 09:00:00",27.103358,93.679645,SO2,8,9,8
India,Assam,Byrnihat,"Central Academy for SFS, Byrnihat - PCBA","27-11-2025 09:00:00",26.071318,91.87488,PM2.5,NA,NA,NA
India,Assam,Sivasagar,"Girls College, Sivasagar - PCBA","27-11-2025 09:00:00",26.987634,94.636574,SO2,8,11,9
India,Bihar,Araria,"Kharahiya Basti, Araria - BSPCB","27-11-2025 09:00:00",26.146529,87.454184,PM2.5,45,233,149
India,Bihar,Araria,"Kharahiya Basti, Araria - BSPCB","27-11-2025 09:00:00",26.146529,87.454184,CO,2,34,33
India,Bihar,Arrah,"New DM Office, Arrah - BSPCB","27-11-2025 09:00:00",25.5626095,84.663264,PM2.5,37,257,154
India,Bihar,Aurangabad,"Gurdeo Nagar, Aurangabad - BSPCB","27-11-2025 09:00:00",24.75746,84.366208,PM2.5,NA,NA,NA
India,Bihar,Begusarai,"Lohiyanagar, Begusarai - BSPCB","27-11-2025 09:00:00",25.42742023,86.13886079,PM10,25,146,50
India,Bihar,Chhapra,"Darshan Nagar, Chhapra - BSPCB","27-11-2025 09:00:00",25.7808257,84.7446768,PM10,31,105,71
India,Bihar,Chhapra,"Darshan Nagar, Chhapra - BSPCB","27-11-2025 09:00:00",25.7808257,84.7446768,NH3,4,6,5
India,Bihar,Chhapra,"Darshan Nagar, Chhapra - BSPCB","27-11-2025 09:00:00",25.7808257,84.7446768,OZONE,18,243,36
India,Bihar,Gaya,"Collectorate, Gaya - BSPCB","27-11-2025 09:00:00",24.7955,84.9994,PM2.5,36,288,129
India,Bihar,Gaya,"Collectorate, Gaya - BSPCB","27-11-2025 09:00:00",24.7955,84.9994,OZONE,19,62,20
India,Bihar,Gaya,"Kareemganj, Gaya - BSPCB","27-11-2025 09:00:00",24.792403,84.992416,NH3,NA,NA,NA
India,Bihar,Gaya,"Kareemganj, Gaya - BSPCB","27-11-2025 09:00:00",24.792403,84.992416,CO,NA,NA,NA
India,Bihar,Gaya,"SFTI Kusdihra, Gaya - BSPCB","27-11-2025 09:00:00",24.762518,84.982348,PM10,42,75,60
India,Bihar,Hajipur,"Industrial Area, Hajipur - BSPCB","27-11-2025 09:00:00",25.697189,85.245900,SO2,3,6,4
India,Bihar,Katihar,"Mirchaibari, Katihar - BSPCB","27-11-2025 09:00:00",25.560083,87.553265,NO2,11,20,16
India,Bihar,Katihar,"Mirchaibari, Katihar - BSPCB","27-11-2025 09:00:00",25.560083,87.553265,NH3,1,1,1
India,Bihar,Kishanganj,"SDM Office_Khagra, Kishanganj - BSPCB","27-11-2025 09:00:00",26.0881305,87.93840336,PM2.5,40,50,44
India,Bihar,Kishanganj,"SDM Office_Khagra, Kishanganj - BSPCB","27-11-2025 09:00:00",26.0881305,87.93840336,SO2,6,10,8
India,Bihar,Manguraha,"Forest Rest House, Manguraha - BSPCB","27-11-2025 09:00:00",27.308328,84.531742,PM10,35,184,76
India,Assam,Byrnihat,"Central Academy for SFS, Byrnihat - PCBA","27-11-2025 09:00:00",26.071318,91.87488,SO2,NA,NA,NA
India,Assam,Guwahati,"IITG, Guwahati - PCBA","27-11-2025 09:00:00",26.2028636,91.70046436,NH3,5,5,5
India,Assam,Guwahati,"LGBI Airport, Guwahati - PCBA","27-11-2025 09:00:00",26.10887,91.589544,CO,8,60,36
India,Assam,Guwahati,"Pan Bazaar, Guwahati - PCBA","27-11-2025 09:00:00",26.187500,91.744194,PM10,18,91,51
India,Assam,Guwahati,"Railway Colony, Guwahati - PCBA","27-11-2025 09:00:00",26.181742,91.78063,NO2,3,4,3
India,Assam,Guwahati,"Railway Colony, Guwahati - PCBA","27-11-2025 09:00:00",26.181742,91.78063,SO2,32,35,33
India,Andhra_Pradesh,Kadapa,"Yerramukkapalli, Kadapa - APPCB","27-11-2025 09:00:00",14.465052,78.824187,PM10,56,79,75
India,Andhra_Pradesh,Kadapa,"Yerramukkapalli, Kadapa - APPCB","27-11-2025 09:00:00",14.465052,78.824187,NH3,3,4,4
India,Andhra_Pradesh,Kadapa,"Yerramukkapalli, Kadapa - APPCB","27-11-2025 09:00:00",14.465052,78.824187,CO,26,46,39
India,Andhra_Pradesh,Kadapa,"Yerramukkapalli, Kadapa - APPCB","27-11-2025 09:00:00",14.465052,78.824187,OZONE,29,31,30
India,Andhra_Pradesh,Rajamahendravaram,"Anand Kala Kshetram, Rajamahendravaram - APPCB","27-11-2025 09:00:00",16.9872867,81.7363176,OZONE,13,38,16
India,Andhra_Pradesh,Tirumala,"Toll Gate, Tirumala - APPCB","27-11-2025 09:00:00",13.67,79.35,PM10,62,112,93
India,Bihar,Motihari,"Gandak Colony, Motihari - BSPCB","27-11-2025 09:00:00",26.63086,84.90051,PM2.5,18,220,111
India,Bihar,Motihari,"Gandak Colony, Motihari - BSPCB","27-11-2025 09:00:00",26.63086,84.90051,OZONE,2,5,2
India,Bihar,Muzaffarpur,"Buddha Colony, Muzaffarpur - BSPCB","27-11-2025 09:00:00",26.11442,85.39813,PM2.5,68,207,142
India,Bihar,Muzaffarpur,"Buddha Colony, Muzaffarpur - BSPCB","27-11-2025 09:00:00",26.11442,85.39813,NH3,7,10,9
India,Bihar,Muzaffarpur,"MIT-Daudpur Kothi, Muzaffarpur - BSPCB","27-11-2025 09:00:00",26.1403345,85.3650192,SO2,9,15,10
India,Andhra_Pradesh,Amaravati,"Secretariat, Amaravati - APPCB","27-11-2025 09:00:00",16.5150833,80.5181667,NO2,20,53,29
India,Andhra_Pradesh,Amaravati,"Secretariat, Amaravati - APPCB","27-11-2025 09:00:00",16.5150833,80.5181667,SO2,9,12,10
India,Andhra_Pradesh,Amaravati,"Secretariat, Amaravati - APPCB","27-11-2025 09:00:00",16.5150833,80.5181667,OZONE,32,58,47
India,Andhra_Pradesh,Anantapur,"Gulzarpet, Anantapur - APPCB","27-11-2025 09:00:00",14.675886,77.593027,NO2,15,25,16
India,Andhra_Pradesh,Anantapur,"Gulzarpet, Anantapur - APPCB","27-11-2025 09:00:00",14.675886,77.593027,CO,22,34,26
India,Assam,Nagaon,"Christianpatty, Nagaon - PCBA","27-11-2025 09:00:00",26.349082,92.68449,PM2.5,45,62,55
India,Assam,Nagaon,"Christianpatty, Nagaon - PCBA","27-11-2025 09:00:00",26.349082,92.68449,SO2,11,14,13
India,Assam,Nagaon,"Christianpatty, Nagaon - PCBA","27-11-2025 09:00:00",26.349082,92.68449,OZONE,9,9,9
India,Bihar,Patna,"Rajbansi Nagar, Patna - BSPCB","27-11-2025 09:00:00",25.599486,85.113666,PM10,65,150,97
India,Bihar,Patna,"Rajbansi Nagar, Patna - BSPCB","27-11-2025 09:00:00",25.599486,85.113666,NO2,11,247,96
India,Bihar,Patna,"Rajbansi Nagar, Patna - BSPCB","27-11-2025 09:00:00",25.599486,85.113666,SO2,7,8,8
India,Bihar,Patna,"Rajbansi Nagar, Patna - BSPCB","27-11-2025 09:00:00",25.599486,85.113666,OZONE,22,29,26
India,Bihar,Patna,"Samanpura, Patna - BSPCB","27-11-2025 09:00:00",25.596727,85.085624,CO,2,116,53
India,Bihar,Purnia,"Mariam Nagar, Purnia - BSPCB","27-11-2025 09:00:00",25.366336,87.117468,PM2.5,33,140,85
India,Bihar,Purnia,"Mariam Nagar, Purnia - BSPCB","27-11-2025 09:00:00",25.366336,87.117468,PM10,29,103,71
India,Bihar,Purnia,"Mariam Nagar, Purnia - BSPCB","27-11-2025 09:00:00",25.366336,87.117468,SO2,10,21,17
India,Bihar,Muzaffarpur,"MIT-Daudpur Kothi, Muzaffarpur - BSPCB","27-11-2025 09:00:00",26.1403345,85.3650192,OZONE,16,65,38
India,Bihar,Muzaffarpur,"Muzaffarpur Collectorate, Muzaffarpur - BSPCB","27-11-2025 09:00:00",26.1209,85.3647,OZONE,8,56,50
India,Bihar,Patna,"DRM Office Danapur, Patna - BSPCB","27-11-2025 09:00:00",25.586562,85.043586,SO2,7,12,9
India,Bihar,Patna,"Govt. High School Shikarpur, Patna - BSPCB","27-11-2025 09:00:00",25.592539,85.227158,CO,48,165,108
India,Bihar,Patna,"IGSC Planetarium Complex, Patna - BSPCB","27-11-2025 09:00:00",25.610369,85.132568,CO,34,67,66
India,Chhattisgarh,Raipur,"Bhatagaon New ISBT, Raipur - CECB","27-11-2025 09:00:00",21.219665,81.630094,PM2.5,NA,NA,NA
India,Chhattisgarh,Raipur,"Bhatagaon New ISBT, Raipur - CECB","27-11-2025 09:00:00",21.219665,81.630094,OZONE,NA,NA,NA
India,Chhattisgarh,Raipur,"Siltara Phase-II, Raipur - CECB","27-11-2025 09:00:00",21.371751,81.664929,NH3,3,3,3
India,Chhattisgarh,Tumidih,"OP Jindal Industrial Park, Tumidih - CECB","27-11-2025 09:00:00",22.06631475,83.33820077,NH3,1,2,2
India,Chhattisgarh,Tumidih,"OP Jindal Industrial Park, Tumidih - CECB","27-11-2025 09:00:00",22.06631475,83.33820077,SO2,5,8,6
India,Delhi,Delhi,"Alipur, Delhi - DPCC","27-11-2025 09:00:00",28.815329,77.153010,PM2.5,197,473,356
India,Chhattisgarh,Bhilai,"Hathkhoj, Bhilai - CECB","27-11-2025 09:00:00",21.224231,81.408350,NH3,4,6,4
India,Chhattisgarh,Bilaspur,"Mangala, Bilaspur - NTPC","27-11-2025 09:00:00",22.08815,82.13737,CO,4,101,24
India,Chhattisgarh,Chhal,"Nawapara SECL Colony, Chhal - CECB","27-11-2025 09:00:00",22.118125,83.140608,NH3,5,5,5
India,Chhattisgarh,Chhal,"Nawapara SECL Colony, Chhal - CECB","27-11-2025 09:00:00",22.118125,83.140608,SO2,3,35,15
India,Chhattisgarh,Korba,"Rampur, Korba - CECB","27-11-2025 09:00:00",22.368195,82.746431,PM10,72,86,85
India,Chhattisgarh,Korba,"Rampur, Korba - CECB","27-11-2025 09:00:00",22.368195,82.746431,NO2,16,24,19
India,Delhi,Delhi,"Alipur, Delhi - DPCC","27-11-2025 09:00:00",28.815329,77.153010,NH3,17,20,18
India,Delhi,Delhi,"Alipur, Delhi - DPCC","27-11-2025 09:00:00",28.815329,77.153010,SO2,5,22,13
India,Delhi,Delhi,"Anand Vihar, Delhi - DPCC","27-11-2025 09:00:00",28.647622,77.3158090,NH3,12,22,16
India,Delhi,Delhi,"Ashok Vihar, Delhi - DPCC","27-11-2025 09:00:00",28.695381,77.181665,CO,8,157,96
India,Delhi,Delhi,"Bawana, Delhi - DPCC","27-11-2025 09:00:00",28.776200,77.051074,PM2.5,240,500,415
India,Delhi,Delhi,"Bawana, Delhi - DPCC","27-11-2025 09:00:00",28.776200,77.051074,PM10,155,500,365
India,Delhi,Delhi,"Bawana, Delhi - DPCC","27-11-2025 09:00:00",28.776200,77.051074,OZONE,4,168,6
India,Bihar,Saharsa,"Police Line, Saharsa - BSPCB","27-11-2025 09:00:00",25.892357,86.590325,OZONE,2,31,14
India,Bihar,Samastipur,"DM Office_Kasipur, Samastipur - BSPCB","27-11-2025 09:00:00",25.859655,85.77944,OZONE,8,9,8
India,Bihar,Sasaram,"Dada Peer, Sasaram - BSPCB","27-11-2025 09:00:00",24.952822,84.002396,CO,50,56,52
India,Bihar,Siwan,"Chitragupta Nagar, Siwan - BSPCB","27-11-2025 09:00:00",26.2271665,84.3570427,NH3,1,1,1
India,Bihar,Siwan,"Chitragupta Nagar, Siwan - BSPCB","27-11-2025 09:00:00",26.2271665,84.3570427,OZONE,7,8,7
India,Chhattisgarh,Kunjemura,"OP Jindal School, Kunjemura - CECB","27-11-2025 09:00:00",22.126650,83.483212,PM2.5,43,67,53
India,Chhattisgarh,Kunjemura,"OP Jindal School, Kunjemura - CECB","27-11-2025 09:00:00",22.126650,83.483212,PM10,47,158,92
India,Chhattisgarh,Kunjemura,"OP Jindal School, Kunjemura - CECB","27-11-2025 09:00:00",22.126650,83.483212,NH3,2,2,2
India,Chhattisgarh,Raipur,"AIIMS, Raipur - CECB","27-11-2025 09:00:00",21.258815,81.578979,PM10,13,118,89
India,Chhattisgarh,Raipur,"AIIMS, Raipur - CECB","27-11-2025 09:00:00",21.258815,81.578979,NH3,1,4,2
India,Chhattisgarh,Raipur,"AIIMS, Raipur - CECB","27-11-2025 09:00:00",21.258815,81.578979,OZONE,NA,NA,NA
India,Delhi,Delhi,"Chandni Chowk, Delhi - IITM","27-11-2025 09:00:00",28.656756,77.227234,SO2,8,32,17
India,Delhi,Delhi,"Chandni Chowk, Delhi - IITM","27-11-2025 09:00:00",28.656756,77.227234,CO,104,127,119
India,Delhi,Delhi,"Dr. Karni Singh Shooting Range, Delhi - DPCC","27-11-2025 09:00:00",28.498571,77.264840,PM10,145,415,264
India,Delhi,Delhi,"Dr. Karni Singh Shooting Range, Delhi - DPCC","27-11-2025 09:00:00",28.498571,77.264840,NO2,90,165,118
India,Delhi,Delhi,"Dr. Karni Singh Shooting Range, Delhi - DPCC","27-11-2025 09:00:00",28.498571,77.264840,CO,34,138,100
India,Chandigarh,Chandigarh,"Sector-25, Chandigarh - CPCC","27-11-2025 09:00:00",30.751462,76.762879,PM2.5,69,230,145
India,Chandigarh,Chandigarh,"Sector-25, Chandigarh - CPCC","27-11-2025 09:00:00",30.751462,76.762879,SO2,5,17,9
India,Chandigarh,Chandigarh,"Sector-53, Chandigarh - CPCC","27-11-2025 09:00:00",30.719859,76.738637,SO2,4,73,16
India,Chhattisgarh,Bhilai,"32Bungalows, Bhilai - CECB","27-11-2025 09:00:00",21.194815,81.314770,PM10,66,127,89
India,Delhi,Delhi,"Jahangirpuri, Delhi - DPCC","27-11-2025 09:00:00",28.732820,77.170633,NO2,114,170,145
India,Delhi,Delhi,"Jahangirpuri, Delhi - DPCC","27-11-2025 09:00:00",28.732820,77.170633,NH3,7,11,9
India,Delhi,Delhi,"Jahangirpuri, Delhi - DPCC","27-11-2025 09:00:00",28.732820,77.170633,SO2,17,57,34
India,Delhi,Delhi,"Jahangirpuri, Delhi - DPCC","27-11-2025 09:00:00",28.732820,77.170633,OZONE,3,205,5
India,Delhi,Delhi,"Jawaharlal Nehru Stadium, Delhi - DPCC","27-11-2025 09:00:00",28.580280,77.233829,OZONE,3,285,3
India,Delhi,Delhi,"Lodhi Road, Delhi - IITM","27-11-2025 09:00:00",28.588333,77.221667,SO2,8,25,18
India,Delhi,Delhi,"Major Dhyan Chand National Stadium, Delhi - DPCC","27-11-2025 09:00:00",28.611281,77.237738,PM2.5,207,382,304
India,Delhi,Delhi,"Mandir Marg, Delhi - DPCC","27-11-2025 09:00:00",28.636429,77.201067,PM10,109,426,254
India,Delhi,Delhi,"Mandir Marg, Delhi - DPCC","27-11-2025 09:00:00",28.636429,77.201067,NO2,44,168,116
India,Gujarat,Ahmedabad,"Maninagar, Ahmedabad - GPCB","27-11-2025 09:00:00",23.002657,72.591912,PM10,75,140,108
India,Gujarat,Ahmedabad,"Maninagar, Ahmedabad - GPCB","27-11-2025 09:00:00",23.002657,72.591912,NO2,59,60,60
India,Gujarat,Ahmedabad,"Maninagar, Ahmedabad - GPCB","27-11-2025 09:00:00",23.002657,72.591912,SO2,36,63,50
India,Gujarat,Ahmedabad,"Maninagar, Ahmedabad - GPCB","27-11-2025 09:00:00",23.002657,72.591912,CO,14,52,35
India,Gujarat,Ahmedabad,"Maninagar, Ahmedabad - GPCB","27-11-2025 09:00:00",23.002657,72.591912,OZONE,23,118,66
India,Gujarat,Ahmedabad,"Raikhad, Ahmedabad - IITM","27-11-2025 09:00:00",23.020509,72.579261,PM10,143,233,173
India,Gujarat,Ahmedabad,"Raikhad, Ahmedabad - IITM","27-11-2025 09:00:00",23.020509,72.579261,NH3,2,5,3
India,Gujarat,Ahmedabad,"Raikhad, Ahmedabad - IITM","27-11-2025 09:00:00",23.020509,72.579261,CO,8,101,20
India,Gujarat,Ahmedabad,"SAC ISRO Satellite, Ahmedabad - IITM","27-11-2025 09:00:00",23.023389,72.515201,PM10,94,129,113
India,Delhi,Delhi,"Mundka, Delhi - DPCC","27-11-2025 09:00:00",28.684678,77.076574,PM10,113,487,291
India,Delhi,Delhi,"Mundka, Delhi - DPCC","27-11-2025 09:00:00",28.684678,77.076574,SO2,3,110,40
India,Delhi,Delhi,"Mundka, Delhi - DPCC","27-11-2025 09:00:00",28.684678,77.076574,OZONE,3,100,3
India,Delhi,Delhi,"NSIT Dwarka, Delhi - CPCB","27-11-2025 09:00:00",28.60909,77.0325413,SO2,10,24,20
India,Delhi,Delhi,"NSIT Dwarka, Delhi - CPCB","27-11-2025 09:00:00",28.60909,77.0325413,CO,34,104,60
India,Delhi,Delhi,"Najafgarh, Delhi - DPCC","27-11-2025 09:00:00",28.570173,76.933762,CO,45,101,85
India,Delhi,Delhi,"Najafgarh, Delhi - DPCC","27-11-2025 09:00:00",28.570173,76.933762,OZONE,4,26,4
India,Delhi,Delhi,"Narela, Delhi - DPCC","27-11-2025 09:00:00",28.822836,77.101981,NH3,5,17,8
India,Delhi,Delhi,"Sirifort, Delhi - CPCB","27-11-2025 09:00:00",28.5504249,77.2159377,OZONE,8,28,12
India,Delhi,Delhi,"Sonia Vihar, Delhi - DPCC","27-11-2025 09:00:00",28.710508,77.249485,PM10,148,411,248
India,Delhi,Delhi,"Sonia Vihar, Delhi - DPCC","27-11-2025 09:00:00",28.710508,77.249485,OZONE,3,301,4
India,Delhi,Delhi,"Sri Aurobindo Marg, Delhi - DPCC","27-11-2025 09:00:00",28.531346,77.190156,PM2.5,183,356,298
India,Delhi,Delhi,"Sri Aurobindo Marg, Delhi - DPCC","27-11-2025 09:00:00",28.531346,77.190156,NO2,6,74,30
India,Delhi,Delhi,"Sri Aurobindo Marg, Delhi - DPCC","27-11-2025 09:00:00",28.531346,77.190156,NH3,5,7,6
India,Delhi,Delhi,"Sri Aurobindo Marg, Delhi - DPCC","27-11-2025 09:00:00",28.531346,77.190156,SO2,1,15,9
India,Delhi,Delhi,"Punjabi Bagh, Delhi - DPCC","27-11-2025 09:00:00",28.674045,77.131023,PM2.5,240,500,389
India,Delhi,Delhi,"Punjabi Bagh, Delhi - DPCC","27-11-2025 09:00:00",28.674045,77.131023,SO2,1,32,16
India,Delhi,Delhi,"Pusa, Delhi - DPCC","27-11-2025 09:00:00",28.639652,77.146275,PM2.5,301,393,341
India,Delhi,Delhi,"Pusa, Delhi - DPCC","27-11-2025 09:00:00",28.639652,77.146275,SO2,4,14,9
India,Delhi,Delhi,"Pusa, Delhi - IMD","27-11-2025 09:00:00",28.636110,77.173332,NO2,7,125,66
India,Delhi,Delhi,"R K Puram, Delhi - DPCC","27-11-2025 09:00:00",28.563262,77.186937,CO,10,167,162
India,Delhi,Delhi,"Dwarka-Sector 8, Delhi - DPCC ","27-11-2025 09:00:00",28.5710274,77.0719006,NO2,50,162,100
India,Delhi,Delhi,"Dwarka-Sector 8, Delhi - DPCC ","27-11-2025 09:00:00",28.5710274,77.0719006,CO,50,173,123
India,Delhi,Delhi,"Dwarka-Sector 8, Delhi - DPCC ","27-11-2025 09:00:00",28.5710274,77.0719006,OZONE,1,165,2
India,Delhi,Delhi,"ITO, Delhi - CPCB","27-11-2025 09:00:00",28.628624,77.241060,NO2,33,263,152
India,Delhi,Delhi,"ITO, Delhi - CPCB","27-11-2025 09:00:00",28.628624,77.241060,CO,39,138,117
India,Delhi,Delhi,"Jahangirpuri, Delhi - DPCC","27-11-2025 09:00:00",28.732820,77.170633,PM2.5,253,500,398
India,Delhi,Delhi,"Narela, Delhi - DPCC","27-11-2025 09:00:00",28.822836,77.101981,CO,24,110,99
India,Delhi,Delhi,"Nehru Nagar, Delhi - DPCC","27-11-2025 09:00:00",28.567890,77.250515,CO,109,158,144
India,Delhi,Delhi,"Okhla Phase-2, Delhi - DPCC","27-11-2025 09:00:00",28.530785,77.271255,PM2.5,237,456,360
India,Delhi,Delhi,"Okhla Phase-2, Delhi - DPCC","27-11-2025 09:00:00",28.530785,77.271255,PM10,157,444,330
India,Delhi,Delhi,"Patparganj, Delhi - DPCC","27-11-2025 09:00:00",28.623763,77.287209,OZONE,3,192,4
India,Delhi,Delhi,"Vivek Vihar, Delhi - DPCC","27-11-2025 09:00:00",28.672342,77.315260,PM2.5,173,500,409
India,Delhi,Delhi,"Vivek Vihar, Delhi - DPCC","27-11-2025 09:00:00",28.672342,77.315260,PM10,148,500,369
India,Delhi,Delhi,"Wazirpur, Delhi - DPCC","27-11-2025 09:00:00",28.699793,77.165453,CO,54,146,122
India,Gujarat,Ahmedabad,"Chandkheda, Ahmedabad - IITM","27-11-2025 09:00:00",23.107969,72.574648,SO2,10,26,17
India,Gujarat,Ahmedabad,"Gyaspur, Ahmedabad - IITM","27-11-2025 09:00:00",22.977134,72.553024,CO,44,103,55
India,Gujarat,Ahmedabad,"Maninagar, Ahmedabad - GPCB","27-11-2025 09:00:00",23.002657,72.591912,PM2.5,83,187,121
India,Haryana,Fatehabad,"Huda Sector, Fatehabad - HSPCB","27-11-2025 09:00:00",29.503664,75.467934,CO,25,36,30
India,Haryana,Gurugram,"NISE Gwal Pahari, Gurugram - IMD","27-11-2025 09:00:00",28.422681,77.148944,CO,8,118,53
India,Haryana,Gurugram,"Teri Gram, Gurugram - HSPCB","27-11-2025 09:00:00",28.4275,77.1465,PM2.5,94,342,297
India,Haryana,Gurugram,"Teri Gram, Gurugram - HSPCB","27-11-2025 09:00:00",28.4275,77.1465,NO2,12,76,52
India,Haryana,Gurugram,"Teri Gram, Gurugram - HSPCB","27-11-2025 09:00:00",28.4275,77.1465,OZONE,10,44,12
India,Haryana,Gurugram,"Vikas Sadan, Gurugram - HSPCB","27-11-2025 09:00:00",28.4501238,77.0263051,PM2.5,171,368,327
India,Haryana,Gurugram,"Vikas Sadan, Gurugram - HSPCB","27-11-2025 09:00:00",28.4501238,77.0263051,SO2,2,8,5
India,Haryana,Hisar,"Urban Estate-II, Hisar - HSPCB","27-11-2025 09:00:00",29.140560,75.744941,PM10,NA,NA,NA
India,Haryana,Dharuhera,"Municipal Corporation Office, Dharuhera -  HSPCB","27-11-2025 09:00:00",28.206800,76.799700,CO,71,100,88
India,Haryana,Faridabad,"New Industrial Town, Faridabad - HSPCB","27-11-2025 09:00:00",28.39072,77.30059,PM2.5,223,241,231
India,Haryana,Faridabad,"New Industrial Town, Faridabad - HSPCB","27-11-2025 09:00:00",28.39072,77.30059,OZONE,26,35,31
India,Haryana,Faridabad,"Sector 11, Faridabad - HSPCB","27-11-2025 09:00:00",28.376058,77.315741,PM2.5,NA,NA,NA
India,Haryana,Faridabad,"Sector 11, Faridabad - HSPCB","27-11-2025 09:00:00",28.376058,77.315741,SO2,NA,NA,NA
India,Haryana,Faridabad,"Sector 30, Faridabad - HSPCB","27-11-2025 09:00:00",28.4417,77.3217,PM10,144,148,145
India,Haryana,Fatehabad,"Huda Sector, Fatehabad - HSPCB","27-11-2025 09:00:00",29.503664,75.467934,NH3,13,15,14
India,Haryana,Fatehabad,"Huda Sector, Fatehabad - HSPCB","27-11-2025 09:00:00",29.503664,75.467934,SO2,2,30,12
India,Haryana,Panchgaon,"Amity University, Panchgaon - IITM","27-11-2025 09:00:00",28.3153,76.9143,NH3,4,10,6
India,Haryana,Panchgaon,"Amity University, Panchgaon - IITM","27-11-2025 09:00:00",28.3153,76.9143,OZONE,11,301,13
India,Haryana,Panchkula,"Sector-6, Panchkula - HSPCB ","27-11-2025 09:00:00",30.7057778,76.8531805555555,SO2,8,9,9
India,Haryana,Rohtak,"MD University, Rohtak - HSPCB","27-11-2025 09:00:00",28.52123,76.37138,PM10,124,176,154
India,Haryana,Sirsa,"F-Block, Sirsa - HSPCB","27-11-2025 09:00:00",29.536400,75.015800,PM10,70,128,105
India,Haryana,Sirsa,"F-Block, Sirsa - HSPCB","27-11-2025 09:00:00",29.536400,75.015800,NO2,11,32,17
India,Haryana,Sonipat,"Murthal, Sonipat - HSPCB","27-11-2025 09:00:00",29.027200,77.062100,PM10,NA,NA,NA
India,Haryana,Sonipat,"Murthal, Sonipat - HSPCB","27-11-2025 09:00:00",29.027200,77.062100,NH3,13,38,17
India,Gujarat,Ahmedabad,"SAC ISRO Satellite, Ahmedabad - IITM","27-11-2025 09:00:00",23.023389,72.515201,NH3,11,23,14
India,Gujarat,Ahmedabad,"SAC ISRO Satellite, Ahmedabad - IITM","27-11-2025 09:00:00",23.023389,72.515201,SO2,21,36,26
India,Gujarat,Ahmedabad,"SVPI Airport Hansol, Ahmedabad - IITM","27-11-2025 09:00:00",23.076793,72.627874,NO2,34,71,47
India,Gujarat,Ahmedabad,"SVPI Airport Hansol, Ahmedabad - IITM","27-11-2025 09:00:00",23.076793,72.627874,CO,13,99,36
India,Gujarat,Ahmedabad,"SVPI Airport Hansol, Ahmedabad - IITM","27-11-2025 09:00:00",23.076793,72.627874,OZONE,11,58,33
India,Gujarat,Ankleshwar,"GIDC, Ankleshwar - GPCB","27-11-2025 09:00:00",21.613267,73.010555,OZONE,34,49,45
India,Gujarat,Gandhinagar,"IIPHG Lekawada, Gandhinagar - IITM","27-11-2025 09:00:00",23.243639,72.68994,PM10,107,137,122
India,Gujarat,Gandhinagar,"IIPHG Lekawada, Gandhinagar - IITM","27-11-2025 09:00:00",23.243639,72.68994,OZONE,5,48,7
India,Haryana,Kurukshetra,"Sector-7, Kurukshetra - HSPCB","27-11-2025 09:00:00",29.966942,76.875879,OZONE,7,77,8
India,Haryana,Mandikhera,"General Hospital, Mandikhera - HSPCB","27-11-2025 09:00:00",27.9002,76.9938,CO,59,84,74
India,Haryana,Manesar,"Sector-2 IMT, Manesar - HSPCB","27-11-2025 09:00:00",28.360699,76.936090,PM2.5,167,500,373
India,Haryana,Manesar,"Sector-2 IMT, Manesar - HSPCB","27-11-2025 09:00:00",28.360699,76.936090,CO,29,90,63
India,Haryana,Palwal,"Shyam Nagar, Palwal - HSPCB","27-11-2025 09:00:00",28.1485564,77.3320667,NH3,8,9,9
India,Haryana,Panchgaon,"Amity University, Panchgaon - IITM","27-11-2025 09:00:00",28.3153,76.9143,PM10,56,219,96
India,"Himachal Pradesh",Baddi,"HIMUDA Complex Phase-1, Baddi - HPPCB","27-11-2025 09:00:00",30.943887,76.801991,SO2,23,115,40
India,"Himachal Pradesh",Baddi,"HIMUDA Complex Phase-1, Baddi - HPPCB","27-11-2025 09:00:00",30.943887,76.801991,CO,46,104,51
India,Jammu_and_Kashmir,Srinagar,"Rajbagh, Srinagar - JKSPCB","27-11-2025 09:00:00",34.066206,74.819820,CO,11,22,14
India,Jammu_and_Kashmir,Srinagar,"Rajbagh, Srinagar - JKSPCB","27-11-2025 09:00:00",34.066206,74.819820,OZONE,NA,NA,NA
India,Jharkhand,Jorapokhar,"Tata Stadium, Jorapokhar - JSPCB","27-11-2025 09:00:00",23.707909,86.414670,OZONE,2,24,4
India,Haryana,Bahadurgarh,"Arya Nagar, Bahadurgarh - HSPCB","27-11-2025 09:00:00",28.6701,76.9254,CO,46,50,48
India,Haryana,Ballabgarh,"Nathu Colony, Ballabgarh - HSPCB","27-11-2025 09:00:00",28.3419248,77.319699,PM2.5,NA,NA,NA
India,Haryana,Ballabgarh,"Nathu Colony, Ballabgarh - HSPCB","27-11-2025 09:00:00",28.3419248,77.319699,CO,15,90,61
India,Haryana,Dharuhera,"Municipal Corporation Office, Dharuhera -  HSPCB","27-11-2025 09:00:00",28.206800,76.799700,PM2.5,172,432,321
India,Gujarat,Gandhinagar,"Sector-10, Gandhinagar - GPCB","27-11-2025 09:00:00",23.221714,72.654328,OZONE,23,73,33
India,Gujarat,Nandesari,"GIDC, Nandesari - Nandesari Ind. Association","27-11-2025 09:00:00",22.410802,73.097923,NO2,17,92,36
India,Gujarat,Vapi,"Phase-1 GIDC, Vapi - GPCB","27-11-2025 09:00:00",20.362421,72.918013,SO2,28,31,30
India,Gujarat,Vatva,"Phase-4 GIDC, Vatva - GPCB","27-11-2025 09:00:00",22.969611,72.643500,NO2,27,46,41
India,Haryana,Jind,"Police Lines, Jind - HSPCB","27-11-2025 09:00:00",29.307814,76.337619,SO2,1,16,5
India,Haryana,Kaithal,"Rishi Nagar, Kaithal - HSPCB","27-11-2025 09:00:00",29.8006,76.4155,PM2.5,62,136,102
India,Haryana,Karnal,"Sector-12, Karnal - HSPCB","27-11-2025 09:00:00",29.695300,77.002700,PM2.5,128,320,276
India,Karnataka,Mangalore,"Kadri, Mangalore - KSPCB","27-11-2025 09:00:00",12.889250,74.853000,PM10,26,39,32
India,Karnataka,Mangalore,"Kadri, Mangalore - KSPCB","27-11-2025 09:00:00",12.889250,74.853000,NH3,2,3,3
India,Karnataka,Mysuru,"Hebbal 1st Stage, Mysuru - KSPCB","27-11-2025 09:00:00",12.21041,76.37376,NO2,16,24,21
India,Karnataka,Mysuru,"Hebbal 1st Stage, Mysuru - KSPCB","27-11-2025 09:00:00",12.21041,76.37376,CO,6,32,9
India,Karnataka,Shivamogga,"Vinoba Nagara, Shivamogga - KSPCB","27-11-2025 09:00:00",13.940000,75.555917,NH3,2,4,3
India,Karnataka,Shivamogga,"Vinoba Nagara, Shivamogga - KSPCB","27-11-2025 09:00:00",13.940000,75.555917,CO,10,30,26
India,Karnataka,Yadgir,"Collector Office, Yadgir - KSPCB","27-11-2025 09:00:00",16.7602,77.1428,CO,20,36,26
India,Karnataka,Yadgir,"Collector Office, Yadgir - KSPCB","27-11-2025 09:00:00",16.7602,77.1428,OZONE,18,21,20
India,Kerala,Eloor,"Udyogamandal, Eloor - Kerala PCB","27-11-2025 09:00:00",10.073232,76.302765,PM2.5,56,92,70
India,Karnataka,Bengaluru,"Jayanagar 5th Block, Bengaluru - KSPCB","27-11-2025 09:00:00",12.920984,77.584908,OZONE,13,72,61
India,Karnataka,Bengaluru,"Jigani, Bengaluru - KSPCB","27-11-2025 09:00:00",12.7816279,77.6299145,CO,47,48,48
India,Karnataka,Bengaluru,"Kasturi Nagar, Bengaluru - KSPCB","27-11-2025 09:00:00",13.003872,77.664217,PM2.5,NA,NA,NA
India,Karnataka,Bengaluru,"Kasturi Nagar, Bengaluru - KSPCB","27-11-2025 09:00:00",13.003872,77.664217,PM10,NA,NA,NA
India,Karnataka,Bengaluru,"Kasturi Nagar, Bengaluru - KSPCB","27-11-2025 09:00:00",13.003872,77.664217,NO2,NA,NA,NA
India,Karnataka,Bengaluru,"Peenya, Bengaluru - CPCB","27-11-2025 09:00:00",13.0270199,77.494094,PM2.5,21,64,37
India,Karnataka,Bengaluru,"Peenya, Bengaluru - CPCB","27-11-2025 09:00:00",13.0270199,77.494094,PM10,87,128,109
India,Karnataka,Bengaluru,"RVCE-Mailasandra, Bengaluru - KSPCB","27-11-2025 09:00:00",12.921418,77.502466,SO2,5,6,6
India,Karnataka,Bengaluru,"Sanegurava Halli, Bengaluru - KSPCB","27-11-2025 09:00:00",12.990328,77.5431385,PM10,51,55,51
India,Karnataka,Davanagere,"Devaraj Urs Badavane, Davanagere - KSPCB","27-11-2025 09:00:00",14.475800,75.905200,NH3,1,4,3
India,Karnataka,Davanagere,"Devaraj Urs Badavane, Davanagere - KSPCB","27-11-2025 09:00:00",14.475800,75.905200,OZONE,19,21,20
India,Karnataka,Gadag,"Panchal Nagar, Gadag - KSPCB","27-11-2025 09:00:00",15.411456,75.638133,PM10,NA,NA,NA
India,Karnataka,Gadag,"Panchal Nagar, Gadag - KSPCB","27-11-2025 09:00:00",15.411456,75.638133,OZONE,NA,NA,NA
India,Karnataka,Haveri,"Ashwini Nagar, Haveri - KSPCB","27-11-2025 09:00:00",14.791800,75.389600,PM2.5,NA,NA,NA
India,Karnataka,Hubballi,"Lingaraj Nagar, Hubballi - KSPCB","27-11-2025 09:00:00",15.3714823,75.1160168,PM2.5,38,45,41
India,Karnataka,Hubballi,"Lingaraj Nagar, Hubballi - KSPCB","27-11-2025 09:00:00",15.3714823,75.1160168,PM10,55,61,57
India,Karnataka,Hubballi,"Lingaraj Nagar, Hubballi - KSPCB","27-11-2025 09:00:00",15.3714823,75.1160168,NO2,7,11,8
India,Karnataka,Hubballi,"Lingaraj Nagar, Hubballi - KSPCB","27-11-2025 09:00:00",15.3714823,75.1160168,CO,6,35,21
India,Karnataka,Bengaluru,"Shivapura_Peenya, Bengaluru - KSPCB","27-11-2025 09:00:00",13.0246342,77.5080115,PM2.5,22,199,89
India,Karnataka,Bengaluru,"Shivapura_Peenya, Bengaluru - KSPCB","27-11-2025 09:00:00",13.0246342,77.5080115,NO2,34,36,35
India,Karnataka,Bengaluru,"Shivapura_Peenya, Bengaluru - KSPCB","27-11-2025 09:00:00",13.0246342,77.5080115,SO2,10,13,11
India,Karnataka,Bengaluru,"Silk Board, Bengaluru - KSPCB","27-11-2025 09:00:00",12.917348,77.622813,PM2.5,69,117,88
India,Karnataka,Bengaluru,"Silk Board, Bengaluru - KSPCB","27-11-2025 09:00:00",12.917348,77.622813,PM10,111,164,136
India,Karnataka,Bengaluru,"Silk Board, Bengaluru - KSPCB","27-11-2025 09:00:00",12.917348,77.622813,OZONE,10,11,10
India,Karnataka,Kalaburagi,"Mahatma Basaveswar Colony, Kalaburgi - KSPCB","27-11-2025 09:00:00",17.336318,76.847397,OZONE,12,23,14
India,Karnataka,Koppal,"Diwator Nagar, Koppal - KSPCB","27-11-2025 09:00:00",15.347630,76.181767,NO2,30,38,33
India,Karnataka,Koppal,"Diwator Nagar, Koppal - KSPCB","27-11-2025 09:00:00",15.347630,76.181767,NH3,7,8,7
India,Karnataka,Madikeri,"Stuart Hill, Madikeri - KSPCB","27-11-2025 09:00:00",12.415911,75.735050,OZONE,3,7,5
India,Karnataka,Belgaum,"Ramteerth Nagar, Belgaum - KSPCB","27-11-2025 09:00:00",15.888653,74.541751,OZONE,19,20,19
India,Karnataka,Bengaluru,"BTM Layout, Bengaluru - CPCB","27-11-2025 09:00:00",12.9135218,77.5950804,NH3,4,5,5
India,Karnataka,Bengaluru,"BWSSB Kadabesanahalli, Bengaluru - CPCB","27-11-2025 09:00:00",12.9352049,77.6814488,CO,NA,NA,NA
India,Karnataka,Bengaluru,"Hombegowda Nagar, Bengaluru - KSPCB","27-11-2025 09:00:00",12.938539,77.590100,PM10,82,123,100
India,Karnataka,Bengaluru,"Hombegowda Nagar, Bengaluru - KSPCB","27-11-2025 09:00:00",12.938539,77.590100,NO2,10,32,18
India,Karnataka,Bengaluru,"Jayanagar 5th Block, Bengaluru - KSPCB","27-11-2025 09:00:00",12.920984,77.584908,NO2,11,67,39
India,Karnataka,Kalaburagi,"Lal Bahadur Shastri Nagar, Kalaburagi - KSPCB","27-11-2025 09:00:00",17.321993,76.822628,CO,32,34,32
India,Karnataka,Bengaluru,"City Railway Station, Bengaluru - KSPCB","27-11-2025 09:00:00",12.9756843,77.5660749,CO,86,88,87
India,Kerala,Thiruvananthapuram,"Plammoodu, Thiruvananthapuram - Kerala PCB","27-11-2025 09:00:00",8.5149093,76.9435879,OZONE,NA,NA,NA
India,Kerala,Thrissur,"Corporation Ground, Thrissur - Kerala PCB","27-11-2025 09:00:00",10.532400,76.215900,PM2.5,42,52,49
India,Kerala,Thrissur,"Corporation Ground, Thrissur - Kerala PCB","27-11-2025 09:00:00",10.532400,76.215900,NO2,6,8,7
India,Kerala,Thrissur,"Corporation Ground, Thrissur - Kerala PCB","27-11-2025 09:00:00",10.532400,76.215900,CO,22,32,30
India,"Madhya Pradesh",Bhopal,"Paryavaran Parisar, Bhopal - MPPCB","27-11-2025 09:00:00",23.210494,77.425409,PM2.5,113,306,174
India,"Madhya Pradesh",Bhopal,"T T Nagar, Bhopal - MPPCB","27-11-2025 09:00:00",23.233584,77.400574,NO2,34,72,46
India,"Madhya Pradesh",Bhopal,"T T Nagar, Bhopal - MPPCB","27-11-2025 09:00:00",23.233584,77.400574,NH3,6,7,6
India,"Madhya Pradesh",Damoh,"Shrivastav Colony, Damoh - MPPCB","27-11-2025 09:00:00",23.81748678,79.446246,CO,3,10,5
India,"Madhya Pradesh",Dewas,"Bhopal Chauraha, Dewas - MPPCB","27-11-2025 09:00:00",22.9682591,76.064118,PM2.5,106,313,261
India,"Madhya Pradesh",Dewas,"Bhopal Chauraha, Dewas - MPPCB","27-11-2025 09:00:00",22.9682591,76.064118,NH3,2,3,3
India,"Madhya Pradesh",Katni,"Gole Bazar, Katni - MPPCB","27-11-2025 09:00:00",23.50016,80.23284,OZONE,11,167,25
India,"Madhya Pradesh",Maihar,"Sahilara, Maihar - KJS Cements","27-11-2025 09:00:00",24.2613009,80.7231783,SO2,17,17,17
India,"Madhya Pradesh",Maihar,"Sahilara, Maihar - KJS Cements","27-11-2025 09:00:00",24.2613009,80.7231783,CO,35,42,40
India,"Madhya Pradesh",Mandideep,"Sector-D Industrial Area, Mandideep - MPPCB","27-11-2025 09:00:00",23.108440,77.511428,PM2.5,116,308,223
India,"Madhya Pradesh",Mandideep,"Sector-D Industrial Area, Mandideep - MPPCB","27-11-2025 09:00:00",23.108440,77.511428,OZONE,42,113,59
India,"Madhya Pradesh",Pithampur,"Sector-2 Industrial Area, Pithampur - MPPCB","27-11-2025 09:00:00",22.624758,75.675238,NO2,21,30,27
India,"Madhya Pradesh",Sagar,"Civil Lines, Sagar - MPPCB","27-11-2025 09:00:00",23.838586,78.759431,PM2.5,80,282,135
India,"Madhya Pradesh",Sagar,"Deen Dayal Nagar, Sagar - MPPCB","27-11-2025 09:00:00",23.8640158,78.80289321,NO2,4,60,15
India,"Madhya Pradesh",Satna,"Bandhavgar Colony, Satna - Birla Cement","27-11-2025 09:00:00",24.58434363,80.8549414,PM2.5,45,48,46
India,"Madhya Pradesh",Singrauli,"Suryakiran Bhawan NCL, Singrauli - MPPCB","27-11-2025 09:00:00",24.108970,82.645580,PM2.5,146,328,259
India,"Madhya Pradesh",Singrauli,"Suryakiran Bhawan NCL, Singrauli - MPPCB","27-11-2025 09:00:00",24.108970,82.645580,NH3,10,12,11
India,"Madhya Pradesh",Singrauli,"Suryakiran Bhawan NCL, Singrauli - MPPCB","27-11-2025 09:00:00",24.108970,82.645580,CO,8,105,61
India,"Madhya Pradesh",Singrauli,"Suryakiran Bhawan NCL, Singrauli - MPPCB","27-11-2025 09:00:00",24.108970,82.645580,OZONE,1,64,2
India,Kerala,Eloor,"Udyogamandal, Eloor - Kerala PCB","27-11-2025 09:00:00",10.073232,76.302765,OZONE,11,19,13
India,Kerala,Kannur,"Thavakkara, Kannur - Kerala PCB","27-11-2025 09:00:00",11.875000,75.373200,NH3,2,3,2
India,Kerala,Kannur,"Thavakkara, Kannur - Kerala PCB","27-11-2025 09:00:00",11.875000,75.373200,CO,16,18,17
India,Kerala,Kollam,"Polayathode, Kollam - Kerala PCB","27-11-2025 09:00:00",8.8787,76.6073,SO2,2,3,2
India,Kerala,Thiruvananthapuram,"Kariavattom, Thiruvananthapuram - Kerala PCB","27-11-2025 09:00:00",8.563700,76.886500,PM10,48,55,51
India,Kerala,Thiruvananthapuram,"Kariavattom, Thiruvananthapuram - Kerala PCB","27-11-2025 09:00:00",8.563700,76.886500,CO,30,76,44
India,Maharashtra,Aurangabad,"More Chowk Waluj, Aurangabad - MPCB","27-11-2025 09:00:00",19.8389439,75.244448,OZONE,25,30,28
India,Maharashtra,Aurangabad,"Rachnakar Colony, Aurangabad - MPCB","27-11-2025 09:00:00",19.863756,75.321188,NH3,2,5,3
India,Maharashtra,Badlapur,"Katrap, Badlapur - MPCB","27-11-2025 09:00:00",19.16485,73.23409,PM2.5,46,165,91
India,Maharashtra,Badlapur,"Katrap, Badlapur - MPCB","27-11-2025 09:00:00",19.16485,73.23409,NH3,3,7,5
India,Maharashtra,Bhiwandi,"Gokul Nagar, Bhiwandi - MPCB","27-11-2025 09:00:00",19.309073,73.057223,NO2,16,41,30
India,"Madhya Pradesh",Indore,"Chhoti Gwaltoli, Indore - MPPCB","27-11-2025 09:00:00",22.4310,75.5213,PM2.5,78,304,207
India,"Madhya Pradesh",Indore,"Chhoti Gwaltoli, Indore - MPPCB","27-11-2025 09:00:00",22.4310,75.5213,CO,40,76,50
India,"Madhya Pradesh",Indore,"Regional Park, Indore - IMC","27-11-2025 09:00:00",22.6780,75.8559,PM10,25,82,56
India,"Madhya Pradesh",Indore,"Residency Area, Indore - IMC","27-11-2025 09:00:00",22.7084,75.8815,NO2,11,18,14
India,"Madhya Pradesh",Jabalpur,"Govindh Bhavan Colony, Jabalpur - JMC","27-11-2025 09:00:00",23.163174,79.973061,NO2,19,25,22
India,Maharashtra,Akola,"Ramdaspeth, Akola - MPCB","27-11-2025 09:00:00",20.719516,77.000253,SO2,10,13,12
India,Maharashtra,Amravati,"Shivneri Colony, Amravati - MPCB","27-11-2025 09:00:00",20.9402359,77.7895248,PM10,119,148,128
India,Maharashtra,Aurangabad,"More Chowk Waluj, Aurangabad - MPCB","27-11-2025 09:00:00",19.8389439,75.244448,PM2.5,55,187,101
India,Maharashtra,Aurangabad,"More Chowk Waluj, Aurangabad - MPCB","27-11-2025 09:00:00",19.8389439,75.244448,PM10,48,117,81
India,Maharashtra,Aurangabad,"More Chowk Waluj, Aurangabad - MPCB","27-11-2025 09:00:00",19.8389439,75.244448,NO2,13,23,18
India,"Madhya Pradesh",Gwalior,"City Center, Gwalior - MPPCB","27-11-2025 09:00:00",26.203442,78.193251,NO2,22,173,64
India,"Madhya Pradesh",Gwalior,"Deen Dayal Nagar, Gwalior - MPPCB","27-11-2025 09:00:00",26.259242,78.216432,OZONE,1,269,3
India,"Madhya Pradesh",Indore,"Airport Area, Indore - IMC","27-11-2025 09:00:00",22.7289,75.8076,PM2.5,43,111,75
India,"Madhya Pradesh",Indore,"Airport Area, Indore - IMC","27-11-2025 09:00:00",22.7289,75.8076,OZONE,4,16,7
India,"Madhya Pradesh",Jabalpur,"Gupteshwar, Jabalpur - JMC","27-11-2025 09:00:00",23.142888,79.916147,SO2,6,9,8
India,"Madhya Pradesh",Jabalpur,"Suhagi, Jabalpur - JMC","27-11-2025 09:00:00",23.218135,79.957770,CO,11,93,38
India,"Madhya Pradesh",Jabalpur,"Suhagi, Jabalpur - JMC","27-11-2025 09:00:00",23.218135,79.957770,OZONE,31,54,33
India,"Madhya Pradesh",Katni,"Gole Bazar, Katni - MPPCB","27-11-2025 09:00:00",23.50016,80.23284,NH3,5,6,5
India,Maharashtra,Jalgaon,"Prabhat Colony, Jalgaon - MPCB","27-11-2025 09:00:00",21.001264,75.565602,NH3,2,3,3
India,Maharashtra,Jalna,"Old MIDC, Jalna - MPCB","27-11-2025 09:00:00",19.854616,75.905894,PM10,47,116,79
India,Maharashtra,Kalyan,"Khadakpada, Kalyan - MPCB","27-11-2025 09:00:00",19.25292,73.142019,PM2.5,43,196,91
India,Maharashtra,Kalyan,"Pimpleshwar Mandir, Kalyan - MPCB","27-11-2025 09:00:00",19.192056,72.9585188,NH3,1,4,1
India,Maharashtra,Kalyan,"Pimpleshwar Mandir, Kalyan - MPCB","27-11-2025 09:00:00",19.192056,72.9585188,SO2,11,24,15
India,Maharashtra,Kalyan,"Pimpleshwar Mandir, Kalyan - MPCB","27-11-2025 09:00:00",19.192056,72.9585188,CO,44,46,45
India,Maharashtra,Mira-Bhayandar,"Bhayandar West, Mira-Bhayandar - MPCB","27-11-2025 09:00:00",19.296481,72.840923,PM2.5,103,171,141
India,Maharashtra,Mira-Bhayandar,"Bhayandar West, Mira-Bhayandar - MPCB","27-11-2025 09:00:00",19.296481,72.840923,PM10,130,156,140
India,Maharashtra,Mumbai,"Bandra Kurla Complex, Mumbai - MPCB","27-11-2025 09:00:00",19.065931,72.862131,PM10,107,238,162
India,Maharashtra,Mumbai,"Bandra Kurla Complex, Mumbai - MPCB","27-11-2025 09:00:00",19.065931,72.862131,NH3,1,18,8
India,Maharashtra,Mumbai,"Bandra Kurla Complex, Mumbai - MPCB","27-11-2025 09:00:00",19.065931,72.862131,SO2,2,17,4
India,Maharashtra,Mumbai,"Chakala-Andheri East, Mumbai - IITM","27-11-2025 09:00:00",19.11074,72.86084,CO,28,101,49
India,Maharashtra,Mumbai,"Chembur, Mumbai - MPCB","27-11-2025 09:00:00",19.0364585,72.8954371,PM2.5,89,312,197
India,Maharashtra,Mumbai,"Chembur, Mumbai - MPCB","27-11-2025 09:00:00",19.0364585,72.8954371,PM10,126,182,153
India,Maharashtra,Mumbai,"Chhatrapati Shivaji Intl. Airport (T2), Mumbai - MPCB","27-11-2025 09:00:00",19.10078,72.87462,CO,NA,NA,NA
India,Maharashtra,Mumbai,"Kherwadi_Bandra East, Mumbai - MPCB","27-11-2025 09:00:00",19.0632143,72.8456324,NO2,12,75,39
India,Maharashtra,Mumbai,"Kurla, Mumbai - MPCB","27-11-2025 09:00:00",19.0863,72.8888,NH3,2,2,2
India,Maharashtra,Mumbai,"Kurla, Mumbai - MPCB","27-11-2025 09:00:00",19.0863,72.8888,CO,17,28,25
India,Maharashtra,Mumbai,"Malad West, Mumbai - IITM","27-11-2025 09:00:00",19.19709,72.82204,CO,34,96,62
India,Maharashtra,Mumbai,"Mazgaon, Mumbai - IITM","27-11-2025 09:00:00",18.96702,72.84214,PM2.5,177,320,271
India,Maharashtra,Mumbai,"Mazgaon, Mumbai - IITM","27-11-2025 09:00:00",18.96702,72.84214,CO,61,122,113
India,Maharashtra,Mumbai,"Mulund West, Mumbai - MPCB","27-11-2025 09:00:00",19.1750,72.9419,PM10,110,341,227
India,Maharashtra,Mumbai,"Mulund West, Mumbai - MPCB","27-11-2025 09:00:00",19.1750,72.9419,NO2,15,18,16
India,Maharashtra,Kolhapur,"Sinchan Bhavan, Kolhapur - MPCB","27-11-2025 09:00:00",16.7143745,74.2426398,PM10,103,292,165
India,Maharashtra,Kolhapur,"Sinchan Bhavan, Kolhapur - MPCB","27-11-2025 09:00:00",16.7143745,74.2426398,NH3,NA,NA,NA
India,Maharashtra,Malegaon,"Mahesh Nagar, Malegaon - MPCB","27-11-2025 09:00:00",20.555712,74.529236,NH3,1,7,1
India,Maharashtra,Boisar,"Khaira, Boisar - MPCB","27-11-2025 09:00:00",19.786089,72.757971,OZONE,45,46,46
India,Maharashtra,Chandrapur,"MIDC Khutala, Chandrapur - MPCB","27-11-2025 09:00:00",19.9775302,79.2337086,NH3,2,8,4
India,Maharashtra,Boisar,"Khaira, Boisar - MPCB","27-11-2025 09:00:00",19.786089,72.757971,NO2,16,83,40
India,Maharashtra,Boisar,"Khaira, Boisar - MPCB","27-11-2025 09:00:00",19.786089,72.757971,CO,22,80,44
India,Maharashtra,Mumbai,"Deonar, Mumbai - IITM","27-11-2025 09:00:00",19.04946,72.9230,OZONE,1,45,4
India,Maharashtra,Mumbai,"Powai, Mumbai - MPCB","27-11-2025 09:00:00",19.137500,72.915056,PM2.5,38,321,120
India,Maharashtra,Mumbai,"Powai, Mumbai - MPCB","27-11-2025 09:00:00",19.137500,72.915056,NH3,1,2,2
India,Maharashtra,Mumbai,"Sewri, Mumbai - BMC","27-11-2025 09:00:00",19.000084,72.856730,NO2,NA,NA,NA
India,Maharashtra,Mumbai,"Sewri, Mumbai - BMC","27-11-2025 09:00:00",19.000084,72.856730,CO,2,124,37
India,Maharashtra,Mumbai,"Shivaji Nagar, Mumbai - BMC","27-11-2025 09:00:00",19.060498,72.923356,NO2,41,90,62
India,Maharashtra,Mumbai,"Shivaji Nagar, Mumbai - BMC","27-11-2025 09:00:00",19.060498,72.923356,OZONE,6,88,12
India,Maharashtra,Mumbai,"Siddharth Nagar-Worli, Mumbai - IITM","27-11-2025 09:00:00",19.000083,72.813993,PM2.5,77,312,217
India,Maharashtra,Pimpri-Chinchwad,"Park Street Wakad, Pimpri Chinchwad - MPCB","27-11-2025 09:00:00",18.59051,73.77946,OZONE,1,85,2
India,Maharashtra,Pimpri-Chinchwad,"Savta Mali Nagar, Pimpri-Chinchwad - IITM","27-11-2025 09:00:00",18.614767,73.799516,OZONE,2,56,7
India,Maharashtra,Pimpri-Chinchwad,"Thergaon, Pimpri Chinchwad - MPCB","27-11-2025 09:00:00",18.616318,73.765797,PM10,69,198,126
India,Maharashtra,Pune,"Katraj Dairy, Pune - MPCB","27-11-2025 09:00:00",18.454450,73.854155,PM2.5,23,90,56
India,Maharashtra,Pune,"Katraj Dairy, Pune - MPCB","27-11-2025 09:00:00",18.454450,73.854155,PM10,74,143,108
India,Maharashtra,"Navi Mumbai","Tondare-Taloja, Navi Mumbai - MPCB","27-11-2025 09:00:00",19.0630,73.1209,NO2,12,22,18
India,Maharashtra,Parbhani,"Masoom Colony, Parbhani - MPCB","27-11-2025 09:00:00",19.265594,76.761463,CO,7,14,12
India,Maharashtra,Pimpri-Chinchwad,"Gavalinagar, Pimpri Chinchwad - MPCB","27-11-2025 09:00:00",18.63673,73.82487,PM2.5,80,262,146
India,Maharashtra,Pimpri-Chinchwad,"Gavalinagar, Pimpri Chinchwad - MPCB","27-11-2025 09:00:00",18.63673,73.82487,PM10,117,222,149
India,Maharashtra,Nashik,"Gangapur Road, Nashik - MPCB","27-11-2025 09:00:00",20.0073285,73.7762427,SO2,24,35,29
India,Maharashtra,Nashik,"Gangapur Road, Nashik - MPCB","27-11-2025 09:00:00",20.0073285,73.7762427,CO,23,32,24
India,Maharashtra,Nashik,"Hirawadi, Nashik - MPCB","27-11-2025 09:00:00",20.021503,73.813844,PM2.5,64,116,84
India,Maharashtra,Nashik,"Hirawadi, Nashik - MPCB","27-11-2025 09:00:00",20.021503,73.813844,SO2,1,27,7
India,Maharashtra,Nashik,"Hirawadi, Nashik - MPCB","27-11-2025 09:00:00",20.021503,73.813844,CO,36,66,49
India,Maharashtra,Nagpur,"Mahal, Nagpur - MPCB","27-11-2025 09:00:00",21.14472,79.107595,CO,43,103,56
India,Maharashtra,Nagpur,"Mahal, Nagpur - MPCB","27-11-2025 09:00:00",21.14472,79.107595,OZONE,17,45,20
India,Maharashtra,Nagpur,"Opp GPO Civil Lines, Nagpur - MPCB","27-11-2025 09:00:00",21.152875,79.0517531,PM10,120,150,134
India,Maharashtra,Nagpur,"Ram Nagar, Nagpur - MPCB","27-11-2025 09:00:00",21.143383,79.048912,OZONE,7,93,11
India,Maharashtra,"Navi Mumbai","Kopripada-Vashi, Navi Mumbai - MPCB","27-11-2025 09:00:00",19.090337,73.014232,PM2.5,37,386,188
India,Maharashtra,"Navi Mumbai","Kopripada-Vashi, Navi Mumbai - MPCB","27-11-2025 09:00:00",19.090337,73.014232,OZONE,1,64,5
India,Maharashtra,"Navi Mumbai","Nerul, Navi Mumbai - MPCB","27-11-2025 09:00:00",19.008751,73.016620,SO2,NA,NA,NA
India,Maharashtra,Mumbai,"Worli, Mumbai - MPCB","27-11-2025 09:00:00",18.9936162,72.8128113,NH3,1,3,1
India,Maharashtra,Mumbai,"Worli, Mumbai - MPCB","27-11-2025 09:00:00",18.9936162,72.8128113,SO2,17,26,20
India,Maharashtra,Nagpur,"Ambazari, Nagpur - MPCB","27-11-2025 09:00:00",21.121801,79.04952,NO2,14,86,37
India,Maharashtra,Nanded,"Sneh Nagar, Nanded - MPCB","27-11-2025 09:00:00",19.173852,77.296291,PM2.5,63,237,141
India,Maharashtra,Nanded,"Sneh Nagar, Nanded - MPCB","27-11-2025 09:00:00",19.173852,77.296291,PM10,106,149,130
India,Maharashtra,Nanded,"Sneh Nagar, Nanded - MPCB","27-11-2025 09:00:00",19.173852,77.296291,CO,18,27,22
India,Maharashtra,Nashik,"MIDC Ambad, Nashik - MPCB","27-11-2025 09:00:00",19.950220,73.731480,CO,12,19,17
India,Odisha,Brajrajnagar,"GM Office, Brajrajnagar - OSPCB","27-11-2025 09:00:00",21.8004996,83.8396977,OZONE,26,28,27
India,Odisha,Byasanagar,"Ferro Chrome Colony, Byasanagar - OSPCB","27-11-2025 09:00:00",20.94185,86.11510,CO,12,72,31
India,Odisha,Byasanagar,"Ferro Chrome Colony, Byasanagar - OSPCB","27-11-2025 09:00:00",20.94185,86.11510,OZONE,28,195,91
India,Odisha,Cuttack,"CDA Area, Cuttack - OSPCB","27-11-2025 09:00:00","20.48891     ","85.84768     ",PM2.5,167,361,277
India,Odisha,Cuttack,"CDA Area, Cuttack - OSPCB","27-11-2025 09:00:00","20.48891     ","85.84768     ",NO2,21,146,60
India,Odisha,Cuttack,"CDA Area, Cuttack - OSPCB","27-11-2025 09:00:00","20.48891     ","85.84768     ",NH3,2,4,3
India,Odisha,Keonjhar,"Jagamohanpur, Keonjhar - OSPCB","27-11-2025 09:00:00",21.643900,85.599355,NH3,8,18,12
India,Odisha,Keonjhar,"Jagamohanpur, Keonjhar - OSPCB","27-11-2025 09:00:00",21.643900,85.599355,SO2,13,29,19
India,Odisha,Keonjhar,"Jagamohanpur, Keonjhar - OSPCB","27-11-2025 09:00:00",21.643900,85.599355,CO,4,123,34
India,Maharashtra,Thane,"Upvan Fort, Thane - MPCB","27-11-2025 09:00:00",19.222279,72.957979,SO2,1,3,2
India,Maharashtra,Thane,"Upvan Fort, Thane - MPCB","27-11-2025 09:00:00",19.222279,72.957979,OZONE,28,188,41
India,Maharashtra,Ulhasnagar,"Sidhi Vinayak Nagar, Ulhasnagar - MPCB","27-11-2025 09:00:00",19.235581,73.159121,NH3,3,7,4
India,Maharashtra,Ulhasnagar,"Sidhi Vinayak Nagar, Ulhasnagar - MPCB","27-11-2025 09:00:00",19.235581,73.159121,OZONE,12,80,14
India,Maharashtra,Virar,"Bolinj, Virar - MPCB","27-11-2025 09:00:00",19.4458210,72.7988231,CO,40,123,90
India,Meghalaya,Shillong,"Lumpyngngad, Shillong - Meghalaya PCB","27-11-2025 09:00:00",25.5586,91.8985,PM10,2,22,8
India,Meghalaya,Shillong,"Lumpyngngad, Shillong - Meghalaya PCB","27-11-2025 09:00:00",25.5586,91.8985,NO2,NA,NA,NA
India,Meghalaya,Shillong,"Lumpyngngad, Shillong - Meghalaya PCB","27-11-2025 09:00:00",25.5586,91.8985,SO2,6,7,6
India,Maharashtra,Sangli,"Vijay Nagar, Sangli - MPCB","27-11-2025 09:00:00"," 16.5038",74.3623,CO,32,66,34
India,Maharashtra,Sangli,"Vijay Nagar, Sangli - MPCB","27-11-2025 09:00:00"," 16.5038",74.3623,OZONE,6,56,26
India,Maharashtra,Solapur,"Dnyaneshwar Nagar, Solapur - MPCB","27-11-2025 09:00:00",17.6336264,75.9132495,NH3,4,13,8
India,Maharashtra,Solapur,"Ratandeep Housing Society, Solapur - MPCB","27-11-2025 09:00:00",17.65439,75.90649,PM10,82,137,110
India,Maharashtra,Solapur,"Ratandeep Housing Society, Solapur - MPCB","27-11-2025 09:00:00",17.65439,75.90649,NH3,2,6,3
India,Maharashtra,Thane,"Kasarvadavali, Thane - MPCB","27-11-2025 09:00:00",19.26777,72.97182,SO2,5,14,8
India,Maharashtra,Thane,"Kasarvadavali, Thane - MPCB","27-11-2025 09:00:00",19.26777,72.97182,CO,20,62,32
India,Mizoram,Aizawl,"Sikulpuikawn, Aizawl - Mizoram PCB","27-11-2025 09:00:00",23.7176342,92.7192841,OZONE,1,6,4
India,Nagaland,Kohima,"PWD Junction, Kohima - NPCB","27-11-2025 09:00:00",25.6635413,94.0989878,PM2.5,10,320,75
India,Nagaland,Kohima,"PWD Junction, Kohima - NPCB","27-11-2025 09:00:00",25.6635413,94.0989878,PM10,9,179,59
India,Odisha,Angul,"Hakimapada, Angul - OSPCB","27-11-2025 09:00:00",20.832874,85.104082,PM2.5,NA,NA,NA
India,Odisha,Angul,"Hakimapada, Angul - OSPCB","27-11-2025 09:00:00",20.832874,85.104082,OZONE,NA,NA,NA
India,Odisha,Balasore,"Kalidaspur, Balasore - OSPCB","27-11-2025 09:00:00",21.51161,86.89088,SO2,9,24,13
India,Maharashtra,Pune,"Katraj Dairy, Pune - MPCB","27-11-2025 09:00:00",18.454450,73.854155,NH3,2,12,5
India,Maharashtra,Pune,"Mhada Colony, Pune - IITM","27-11-2025 09:00:00",18.573040,73.927715,PM2.5,81,301,190
India,Maharashtra,Pune,"Mhada Colony, Pune - IITM","27-11-2025 09:00:00",18.573040,73.927715,PM10,85,213,148
India,Maharashtra,Pune,"Panchawati_Pashan, Pune - IITM","27-11-2025 09:00:00",18.536457,73.805454,OZONE,NA,NA,NA
India,Maharashtra,Pune,"Transport Nagar-Nigdi, Pune - IITM","27-11-2025 09:00:00",18.664282,73.763966,PM2.5,50,160,94
India,Odisha,Talcher,"Talcher Coalfields,Talcher - OSPCB","27-11-2025 09:00:00",20.9360711,85.1707021,NO2,55,99,80
India,Puducherry,Puducherry,"Jawahar Nagar, Puducherry - PPCC","27-11-2025 09:00:00",11.9309,79.8027,NO2,15,42,22
India,Punjab,Amritsar,"Golden Temple, Amritsar - PPCB","27-11-2025 09:00:00",31.620000,74.876512,NH3,6,12,8
India,Punjab,Amritsar,"Golden Temple, Amritsar - PPCB","27-11-2025 09:00:00",31.620000,74.876512,OZONE,24,37,31
India,Odisha,Barbil,"Forest Office, Barbil - OSPCB","27-11-2025 09:00:00",22.1166054,85.3945546,SO2,7,25,12
India,Odisha,Bileipada,"Tata Township, Bileipada - OSPCB","27-11-2025 09:00:00",22.06156703,85.47409613,PM10,92,131,109
India,Odisha,Bileipada,"Tata Township, Bileipada - OSPCB","27-11-2025 09:00:00",22.06156703,85.47409613,NH3,4,4,4
India,Odisha,Bileipada,"Tata Township, Bileipada - OSPCB","27-11-2025 09:00:00",22.06156703,85.47409613,SO2,7,7,7
India,Odisha,Bileipada,"Tata Township, Bileipada - OSPCB","27-11-2025 09:00:00",22.06156703,85.47409613,CO,28,100,40
India,Punjab,Khanna,"Kalal Majra, Khanna - PPCB","27-11-2025 09:00:00","30.736056 ",76.209694,NO2,25,30,28
India,Punjab,Khanna,"Kalal Majra, Khanna - PPCB","27-11-2025 09:00:00","30.736056 ",76.209694,CO,2,46,32
India,Punjab,"Mandi Gobindgarh","RIMT University, Mandi Gobindgarh - PPCB","27-11-2025 09:00:00",30.649961,76.331442,PM2.5,86,146,112
India,Odisha,Rourkela,"Fertilizer Township, Rourkela - OSPCB","27-11-2025 09:00:00",22.18972222,84.86277778,SO2,9,10,9
India,Odisha,Rourkela,"Raghunathpali, Rourkela - OSPCB","27-11-2025 09:00:00",22.220833,84.809444,PM2.5,NA,NA,NA
India,Rajasthan,Jodhpur,"Jhalamand, Jodhpur - RSPCB","27-11-2025 09:00:00",26.215415,73.070156,OZONE,50,116,53
India,Rajasthan,Jodhpur,"Mandor, Jodhpur - RSPCB","27-11-2025 09:00:00",26.358805,73.047444,PM10,83,137,103
India,Rajasthan,Jodhpur,"Mandor, Jodhpur - RSPCB","27-11-2025 09:00:00",26.358805,73.047444,NH3,4,6,4
India,Rajasthan,Jodhpur,"Mandor, Jodhpur - RSPCB","27-11-2025 09:00:00",26.358805,73.047444,CO,22,41,26
India,Rajasthan,Jodhpur,"Mandor, Jodhpur - RSPCB","27-11-2025 09:00:00",26.358805,73.047444,OZONE,72,157,81
India,Rajasthan,Jodhpur,"Samrat Ashok Udhyan, Jodhpur - RSPCB","27-11-2025 09:00:00",26.253384,72.976571,NO2,19,70,35
India,Rajasthan,Jodhpur,"Samrat Ashok Udhyan, Jodhpur - RSPCB","27-11-2025 09:00:00",26.253384,72.976571,CO,30,42,34
India,Rajasthan,Karauli,"Satyawati Vihar, Karauli - RSPCB","27-11-2025 09:00:00",26.506177,77.025989,PM10,74,139,104
India,Rajasthan,Karauli,"Satyawati Vihar, Karauli - RSPCB","27-11-2025 09:00:00",26.506177,77.025989,NO2,22,76,39
India,Rajasthan,Bhiwadi,"Vasundhara Nagar_UIT, Bhiwadi - RSPCB","27-11-2025 09:00:00",28.207266,76.829265,PM2.5,160,480,328
India,Rajasthan,Bhiwadi,"Vasundhara Nagar_UIT, Bhiwadi - RSPCB","27-11-2025 09:00:00",28.207266,76.829265,NH3,1,7,4
India,Rajasthan,Bhiwadi,"Vasundhara Nagar_UIT, Bhiwadi - RSPCB","27-11-2025 09:00:00",28.207266,76.829265,CO,36,149,105
India,Rajasthan,Bikaner,"MM Ground, Bikaner - RSPCB","27-11-2025 09:00:00",28.018792,73.292658,NO2,15,89,54
India,Rajasthan,Bundi,"New Colony, Bundi - RSPCB","27-11-2025 09:00:00",25.435774,75.644272,PM2.5,78,200,116
India,Rajasthan,Chittorgarh,"Shastri Nagar, Chittorgarh - RSPCB","27-11-2025 09:00:00",24.892047,74.623527,NO2,20,80,46
India,Rajasthan,Chittorgarh,"Shastri Nagar, Chittorgarh - RSPCB","27-11-2025 09:00:00",24.892047,74.623527,CO,6,48,34
India,Rajasthan,Jaipur,"RIICO Sitapura, Jaipur - RSPCB","27-11-2025 09:00:00",26.786682,75.827928,PM2.5,76,293,168
India,Rajasthan,Jaipur,"Sector-2 Murlipura, Jaipur - RSPCB","27-11-2025 09:00:00",26.960669,75.771817,SO2,4,7,6
India,Rajasthan,Jaipur,"Shastri Nagar, Jaipur - RSPCB","27-11-2025 09:00:00",26.9502929,75.730943,NH3,7,17,12
India,Rajasthan,Jaipur,"Shastri Nagar, Jaipur - RSPCB","27-11-2025 09:00:00",26.9502929,75.730943,SO2,4,36,19
India,Rajasthan,Jaisalmer,"Sadar Bazar, Jaisalmer - RSPCB","27-11-2025 09:00:00",26.912329,70.909168,SO2,3,7,4
India,Rajasthan,Jaisalmer,"Sadar Bazar, Jaisalmer - RSPCB","27-11-2025 09:00:00",26.912329,70.909168,CO,21,42,24
India,Rajasthan,Jaisalmer,"Sadar Bazar, Jaisalmer - RSPCB","27-11-2025 09:00:00",26.912329,70.909168,OZONE,64,142,82
India,Rajasthan,Barmer,"Railway Colony, Barmer - RSPCB","27-11-2025 09:00:00",25.747299,71.393989,PM2.5,88,330,151
India,Rajasthan,Barmer,"Railway Colony, Barmer - RSPCB","27-11-2025 09:00:00",25.747299,71.393989,CO,20,113,23
India,Rajasthan,Bhilwara,"Pratap Nagar, Bhilwara - RSPCB","27-11-2025 09:00:00",25.339605,74.618883,PM2.5,97,253,148
India,Rajasthan,Bhilwara,"Pratap Nagar, Bhilwara - RSPCB","27-11-2025 09:00:00",25.339605,74.618883,NO2,16,67,29
India,Rajasthan,Bhilwara,"Pratap Nagar, Bhilwara - RSPCB","27-11-2025 09:00:00",25.339605,74.618883,OZONE,4,56,18
India,Rajasthan,Bhiwadi,"RIICO Ind. Area III, Bhiwadi - RSPCB","27-11-2025 09:00:00",28.194909,76.862296,NO2,18,114,63
India,Rajasthan,Bhiwadi,"RIICO Ind. Area III, Bhiwadi - RSPCB","27-11-2025 09:00:00",28.194909,76.862296,SO2,7,32,14
India,Rajasthan,Karauli,"Satyawati Vihar, Karauli - RSPCB","27-11-2025 09:00:00",26.506177,77.025989,OZONE,20,93,31
India,Rajasthan,Kota,"Dhanmandi, Kota - RSPCB","27-11-2025 09:00:00",25.164090,75.858137,OZONE,5,122,25
India,Rajasthan,Kota,"Nayapura, Kota - RSPCB","27-11-2025 09:00:00",25.196024,75.855668,PM2.5,80,253,153
India,Rajasthan,Kota,"Nayapura, Kota - RSPCB","27-11-2025 09:00:00",25.196024,75.855668,NO2,27,124,53
India,Rajasthan,Kota,"Nayapura, Kota - RSPCB","27-11-2025 09:00:00",25.196024,75.855668,SO2,2,7,4
India,Rajasthan,Nagaur,"Karni Colony, Nagaur - RSPCB","27-11-2025 09:00:00",27.213494,73.734444,PM10,85,262,150
India,Rajasthan,Jalore,"Mudtra Sili, Jalore - RSPCB","27-11-2025 09:00:00",25.344694,72.626208,CO,40,113,45
India,Rajasthan,Jhunjhunu,"Indra Nagar, Jhunjhunu - RSPCB","27-11-2025 09:00:00",28.108988,75.386577,NO2,24,134,60
India,Rajasthan,Jodhpur,"Collectorate, Jodhpur - RSPCB","27-11-2025 09:00:00",26.268249,73.0193853,SO2,7,26,16
India,Rajasthan,Jodhpur,"Digari Kalan, Jodhpur - RSPCB","27-11-2025 09:00:00",26.295810,73.082283,PM2.5,70,170,103
India,Rajasthan,Dungarpur,"Bhoiwada, Dungarpur - RSPCB","27-11-2025 09:00:00",23.837789,73.714926,OZONE,40,152,52
India,Rajasthan,Jaipur,"Adarsh Nagar, Jaipur - RSPCB","27-11-2025 09:00:00",26.902909,75.836858,NH3,10,16,12
India,Rajasthan,Jaipur,"Adarsh Nagar, Jaipur - RSPCB","27-11-2025 09:00:00",26.902909,75.836858,CO,34,66,51
India,Rajasthan,Jaipur,"Mansarovar Sector-12, Jaipur - RSPCB","27-11-2025 09:00:00",26.843698,75.766894,PM10,119,244,148
India,Rajasthan,Jaipur,"Mansarovar Sector-12, Jaipur - RSPCB","27-11-2025 09:00:00",26.843698,75.766894,NH3,9,34,10
India,Rajasthan,Ajmer,"Civil Lines,  Ajmer - RSPCB","27-11-2025 09:00:00",26.470859,74.646594,NH3,2,4,4
India,Rajasthan,Alwar,"Moti Doongri, Alwar - RSPCB","27-11-2025 09:00:00",27.554793,76.611536,NH3,7,18,14
India,Rajasthan,Banswara,"Rati Talai, Banswara - RSPCB","27-11-2025 09:00:00",23.555190,74.440010,NO2,23,51,32
India,Rajasthan,Churu,"Subash Chowk, Churu - RSPCB","27-11-2025 09:00:00",28.296139,74.961696,CO,16,56,32
India,Rajasthan,Dungarpur,"Bhoiwada, Dungarpur - RSPCB","27-11-2025 09:00:00",23.837789,73.714926,PM2.5,177,287,215
India,Rajasthan,Dungarpur,"Bhoiwada, Dungarpur - RSPCB","27-11-2025 09:00:00",23.837789,73.714926,NH3,4,6,5
India,Rajasthan,Udaipur,"Ashok Nagar, Udaipur - RSPCB","27-11-2025 09:00:00",24.5886166,73.6321397,SO2,5,11,8
India,Rajasthan,Udaipur,"Ashok Nagar, Udaipur - RSPCB","27-11-2025 09:00:00",24.5886166,73.6321397,OZONE,7,88,24
India,Sikkim,Gangtok,"Zero Point GICI, Gangtok - SSPCB","27-11-2025 09:00:00",27.338530,88.614099,CO,2,12,2
India,TamilNadu,Ariyalur,"Keelapalur, Ariyalur - TNPCB","27-11-2025 09:00:00",11.06825,79.07033,NO2,9,9,9
India,TamilNadu,Chennai,"Alandur Bus Depot, Chennai - CPCB","27-11-2025 09:00:00",12.9099161,80.1076538,PM10,104,140,124
India,TamilNadu,Chennai,"Alandur Bus Depot, Chennai - CPCB","27-11-2025 09:00:00",12.9099161,80.1076538,CO,18,26,23
India,TamilNadu,Chennai,"Arumbakkam, Chennai - TNPCB","27-11-2025 09:00:00",13.0664,"80.2112 ",SO2,2,40,10
India,TamilNadu,Tiruchirappalli,"St Joseph College, Tiruchirappalli - TNPCB","27-11-2025 09:00:00",10.830158,78.691849,PM2.5,NA,NA,NA
India,TamilNadu,Tiruchirappalli,"St Joseph College, Tiruchirappalli - TNPCB","27-11-2025 09:00:00",10.830158,78.691849,PM10,NA,NA,NA
India,TamilNadu,Tiruchirappalli,"St Joseph College, Tiruchirappalli - TNPCB","27-11-2025 09:00:00",10.830158,78.691849,OZONE,NA,NA,NA
India,TamilNadu,Tirunelveli,"Municipal Corporation Office, Tirunelveli - TNPCB","27-11-2025 09:00:00",8.728442,77.6962,PM10,17,49,32
India,TamilNadu,Tirunelveli,"Municipal Corporation Office, Tirunelveli - TNPCB","27-11-2025 09:00:00",8.728442,77.6962,NH3,2,8,4
India,TamilNadu,Tirupur,"Kumaran College, Tirupur - TNPCB","27-11-2025 09:00:00",11.0973603,77.3228673,PM10,77,124,100
India,TamilNadu,Virudhunagar,"Collectorate Office, Virudhunagar - TNPCB","27-11-2025 09:00:00",9.559382,77.948828,PM2.5,64,105,83
India,TamilNadu,Chennai,"Velachery Res. Area, Chennai - CPCB","27-11-2025 09:00:00",13.0052189,80.2398125,CO,29,43,31
India,TamilNadu,Chennai,"Velachery Res. Area, Chennai - CPCB","27-11-2025 09:00:00",13.0052189,80.2398125,OZONE,6,9,6
India,TamilNadu,Coimbatore,"SIDCO Kurichi, Coimbatore - TNPCB","27-11-2025 09:00:00",10.942451,76.978996,PM10,NA,NA,NA
India,TamilNadu,Coimbatore,"SIDCO Kurichi, Coimbatore - TNPCB","27-11-2025 09:00:00",10.942451,76.978996,SO2,20,23,22
India,TamilNadu,Dindigul,"Mendonsa Colony, Dindigul - TNPCB","27-11-2025 09:00:00",10.358535,77.984321,SO2,19,24,22
India,TamilNadu,Gummidipoondi,"Anthoni Pillai Nagar, Gummidipoondi - TNPCB","27-11-2025 09:00:00",13.4127,80.1081,PM2.5,72,437,260
India,Rajasthan,Nagaur,"Karni Colony, Nagaur - RSPCB","27-11-2025 09:00:00",27.213494,73.734444,NO2,15,67,26
India,Rajasthan,Pali,"Indira Colony Vistar, Pali - RSPCB","27-11-2025 09:00:00",25.771061," 73.340227",CO,14,60,44
India,Rajasthan,Pratapgarh,"Pragati Nagar, Pratapgarh - RSPCB","27-11-2025 09:00:00",24.041198,74.780702,PM10,88,118,104
India,Rajasthan,Pratapgarh,"Pragati Nagar, Pratapgarh - RSPCB","27-11-2025 09:00:00",24.041198,74.780702,NO2,18,30,24
India,Rajasthan,Rajsamand,"Dhoinda, Rajsamand - RSPCB","27-11-2025 09:00:00",25.036360,73.883502,NO2,16,63,24
India,Telangana,Hyderabad,"Central University, Hyderabad - TSPCB","27-11-2025 09:00:00",17.460103,78.334361,PM10,88,132,113
India,Telangana,Hyderabad,"Central University, Hyderabad - TSPCB","27-11-2025 09:00:00",17.460103,78.334361,SO2,4,12,8
India,Telangana,Hyderabad,"ECIL Kapra, Hyderabad - TSPCB","27-11-2025 09:00:00",17.470431,78.566959,OZONE,12,39,12
India,Telangana,Hyderabad,"IDA Pashamylaram, Hyderabad - TSPCB","27-11-2025 09:00:00",17.5316895,78.218939,PM2.5,80,190,127
India,Telangana,Hyderabad,"IDA Pashamylaram, Hyderabad - TSPCB","27-11-2025 09:00:00",17.5316895,78.218939,NO2,NA,NA,NA
India,Telangana,Hyderabad,"IDA Pashamylaram, Hyderabad - TSPCB","27-11-2025 09:00:00",17.5316895,78.218939,NH3,NA,NA,NA
India,Rajasthan,Sikar,"Radhakishan Pura, Sikar - RSPCB","27-11-2025 09:00:00",27.608912,75.153302,OZONE,22,110,76
India,Rajasthan,Tonk,"Shastri Nagar, Tonk - RSPCB","27-11-2025 09:00:00",26.159933,75.780517,PM10,130,340,173
India,Rajasthan,Tonk,"Shastri Nagar, Tonk - RSPCB","27-11-2025 09:00:00",26.159933,75.780517,OZONE,20,63,51
India,Rajasthan,Udaipur,"Ashok Nagar, Udaipur - RSPCB","27-11-2025 09:00:00",24.5886166,73.6321397,PM2.5,121,298,177
India,TamilNadu,Madurai,"Uchapatti, Madurai - TNPCB","27-11-2025 09:00:00",9.865935,78.022669,NO2,16,16,16
India,TamilNadu,Madurai,"Uchapatti, Madurai - TNPCB","27-11-2025 09:00:00",9.865935,78.022669,NH3,4,4,4
India,TamilNadu,Palkalaiperur,"Bharathidasan University, Palkalaiperur - TNPCB","27-11-2025 09:00:00",10.681158,78.741746,NO2,4,12,6
India,TamilNadu,Palkalaiperur,"Bharathidasan University, Palkalaiperur - TNPCB","27-11-2025 09:00:00",10.681158,78.741746,NH3,1,2,1
India,TamilNadu,Palkalaiperur,"Bharathidasan University, Palkalaiperur - TNPCB","27-11-2025 09:00:00",10.681158,78.741746,SO2,5,12,9
India,TamilNadu,Chennai,"Kodungaiyur, Chennai - TNPCB","27-11-2025 09:00:00",13.1278,80.2642,NO2,5,13,8
India,TamilNadu,Chennai,"Kodungaiyur, Chennai - TNPCB","27-11-2025 09:00:00",13.1278,80.2642,SO2,3,30,7
India,TamilNadu,Chennai,"Kodungaiyur, Chennai - TNPCB","27-11-2025 09:00:00",13.1278,80.2642,CO,2,37,12
India,TamilNadu,Thanjavur,"Parisutham Nagar, Thanjavur - TNPCB","27-11-2025 09:00:00",10.7654824,79.1389968,NH3,1,1,1
India,Uttar_Pradesh,Gorakhpur,"Madan Mohan Malaviya University of Technology, Gorakhpur - UPPCB","27-11-2025 09:00:00",26.730136,83.433859,PM10,2,79,46
India,Uttar_Pradesh,"Greater Noida","Knowledge Park - III, Greater Noida - UPPCB","27-11-2025 09:00:00",28.47272,77.482000,PM10,137,500,373
India,Uttar_Pradesh,"Greater Noida","Knowledge Park - III, Greater Noida - UPPCB","27-11-2025 09:00:00",28.47272,77.482000,SO2,9,32,20
India,Uttar_Pradesh,"Greater Noida","Knowledge Park - V, Greater Noida - UPPCB","27-11-2025 09:00:00",28.557054,77.453663,NO2,98,340,214
India,Uttar_Pradesh,Hapur,"Anand Vihar, Hapur - UPPCB","27-11-2025 09:00:00",28.725645,77.749675,NH3,5,8,7
India,Uttar_Pradesh,Jhansi,"Shivaji Nagar, Jhansi - UPPCB","27-11-2025 09:00:00",25.4547,78.6039,PM2.5,28,61,42
India,Uttar_Pradesh,Firozabad,"Vibhab Nagar, Firozabad - UPPCB","27-11-2025 09:00:00",27.1594,78.3953,NH3,2,2,2
India,Uttar_Pradesh,Ghaziabad,"Indirapuram, Ghaziabad - UPPCB","27-11-2025 09:00:00",28.646233,77.358075,PM10,180,500,393
India,Uttar_Pradesh,Ghaziabad,"Loni, Ghaziabad - UPPCB","27-11-2025 09:00:00",28.757294,77.278792,NO2,36,200,120
India,Uttar_Pradesh,Ghaziabad,"Loni, Ghaziabad - UPPCB","27-11-2025 09:00:00",28.757294,77.278792,OZONE,1,70,2
India,Uttar_Pradesh,Ghaziabad,"Sanjay Nagar, Ghaziabad - UPPCB","27-11-2025 09:00:00",28.685382,77.453839,NH3,7,16,9
India,Uttar_Pradesh,Ghaziabad,"Vasundhara, Ghaziabad - UPPCB","27-11-2025 09:00:00",28.6603346,77.3572563,SO2,15,28,22
India,Uttar_Pradesh,Ghaziabad,"Vasundhara, Ghaziabad - UPPCB","27-11-2025 09:00:00",28.6603346,77.3572563,CO,22,169,123
India,Telangana,Hyderabad,"IITH Kandi, Hyderabad - TSPCB","27-11-2025 09:00:00",17.585705,78.126199,NO2,13,17,15
India,Telangana,Hyderabad,"IITH Kandi, Hyderabad - TSPCB","27-11-2025 09:00:00",17.585705,78.126199,NH3,2,3,3
India,Telangana,Hyderabad,"Kokapet, Hyderabad - TSPCB","27-11-2025 09:00:00",17.393559,78.339194,NO2,10,16,12
India,Telangana,Hyderabad,"Kokapet, Hyderabad - TSPCB","27-11-2025 09:00:00",17.393559,78.339194,NH3,2,3,2
India,Telangana,Hyderabad,"Kompally Municipal Office, Hyderabad - TSPCB","27-11-2025 09:00:00",17.544899,78.486949,PM2.5,52,66,57
India,Telangana,Hyderabad,"Kompally Municipal Office, Hyderabad - TSPCB","27-11-2025 09:00:00",17.544899,78.486949,PM10,70,91,81
India,Telangana,Hyderabad,"New Malakpet, Hyderabad - TSPCB","27-11-2025 09:00:00",17.37206,78.50864,PM10,82,95,89
India,Telangana,Hyderabad,"New Malakpet, Hyderabad - TSPCB","27-11-2025 09:00:00",17.37206,78.50864,NO2,12,16,14
India,Uttar_Pradesh,Lucknow,"Talkatora District Industries Center, Lucknow - CPCB","27-11-2025 09:00:00",26.83399722,80.8917361,PM10,86,361,168
India,Uttar_Pradesh,Lucknow,"Talkatora District Industries Center, Lucknow - CPCB","27-11-2025 09:00:00",26.83399722,80.8917361,NH3,9,24,14
India,Uttar_Pradesh,Lucknow,"Talkatora District Industries Center, Lucknow - CPCB","27-11-2025 09:00:00",26.83399722,80.8917361,OZONE,9,53,13
India,Uttar_Pradesh,Meerut,"Jai Bhim Nagar, Meerut - UPPCB","27-11-2025 09:00:00",28.9535882,77.7622941,SO2,3,20,12
India,Uttar_Pradesh,Meerut,"Pallavpuram Phase 2, Meerut - UPPCB","27-11-2025 09:00:00",29.063510,77.709723,PM10,149,479,284
India,Uttar_Pradesh,Meerut,"Pallavpuram Phase 2, Meerut - UPPCB","27-11-2025 09:00:00",29.063510,77.709723,SO2,8,26,16
India,Uttar_Pradesh,Lucknow,"B R Ambedkar University, Lucknow - UPPCB","27-11-2025 09:00:00",26.766433,80.927299,PM10,60,202,145
India,Uttar_Pradesh,Lucknow,"Gomti Nagar, Lucknow - UPPCB","27-11-2025 09:00:00",26.868120,81.005119,PM10,48,156,97
India,Uttar_Pradesh,Lucknow,"Kukrail Picnic Spot-1, Lucknow - UPPCB","27-11-2025 09:00:00",26.90723,80.98579,NH3,5,5,5
India,Uttar_Pradesh,Lucknow,"Kukrail Picnic Spot-1, Lucknow - UPPCB","27-11-2025 09:00:00",26.90723,80.98579,SO2,41,45,42
India,Uttar_Pradesh,Lucknow,"Lalbagh, Lucknow - CPCB","27-11-2025 09:00:00",26.8458805,80.9365541,PM2.5,44,331,155
India,Uttar_Pradesh,Lucknow,"Lalbagh, Lucknow - CPCB","27-11-2025 09:00:00",26.8458805,80.9365541,NH3,12,19,16
India,Uttar_Pradesh,Jhansi,"Shivaji Nagar, Jhansi - UPPCB","27-11-2025 09:00:00",25.4547,78.6039,OZONE,1,3,1
India,Uttar_Pradesh,Kanpur,"FTI Kidwai Nagar, Kanpur - UPPCB","27-11-2025 09:00:00",26.428282,80.327067,PM2.5,21,330,124
India,Uttar_Pradesh,Kanpur,"NSI Kalyanpur, Kanpur - UPPCB","27-11-2025 09:00:00",26.509954,80.249612,SO2,17,20,18
India,Uttar_Pradesh,Khurja,"Kalindi Kunj, Khurja - UPPCB","27-11-2025 09:00:00",28.2348927,77.8683002,PM10,90,365,208
India,Uttar_Pradesh,Agra,"Shahjahan Garden, Agra - UPPCB","27-11-2025 09:00:00",27.169338,78.03582,PM10,116,256,173
India,Uttar_Pradesh,Agra,"Shastripuram, Agra - UPPCB","27-11-2025 09:00:00",27.19862,77.92066,NH3,3,3,3
India,Uttar_Pradesh,Baghpat,"Sardar Patel Inter College, Baghpat - UPPCB","27-11-2025 09:00:00",28.964949,77.278761,PM10,136,413,229
India,Uttar_Pradesh,Baghpat,"Sardar Patel Inter College, Baghpat - UPPCB","27-11-2025 09:00:00",28.964949,77.278761,OZONE,1,104,3
India,Telangana,Hyderabad,"Ramachandrapuram, Hyderabad - TSPCB","27-11-2025 09:00:00",17.528544,78.286195,OZONE,23,33,24
India,Telangana,Hyderabad,"Sanathnagar, Hyderabad - TSPCB","27-11-2025 09:00:00",17.4559458,78.4332152,OZONE,13,17,14
India,Telangana,Hyderabad,"Somajiguda, Hyderabad - TSPCB","27-11-2025 09:00:00",17.417094,78.457437,PM10,88,152,95
India,Telangana,Hyderabad,"Somajiguda, Hyderabad - TSPCB","27-11-2025 09:00:00",17.417094,78.457437,NO2,13,17,15
India,Uttar_Pradesh,Bareilly,"Civil Lines, Bareilly - UPPCB","27-11-2025 09:00:00",28.359581,79.414455,OZONE,11,32,17
India,Uttar_Pradesh,Firozabad,"Nagla Bhau, Firozabad - UPPCB","27-11-2025 09:00:00",27.168897,78.376960,SO2,11,28,21
India,Uttar_Pradesh,Firozabad,"Vibhab Nagar, Firozabad - UPPCB","27-11-2025 09:00:00",27.1594,78.3953,PM2.5,63,321,155
India,Uttar_Pradesh,Varanasi,"Maldahiya, Varanasi - UPPCB","27-11-2025 09:00:00",25.32393,82.99687,NO2,2,2,2
India,Uttar_Pradesh,Varanasi,"Maldahiya, Varanasi - UPPCB","27-11-2025 09:00:00",25.32393,82.99687,CO,20,104,76
India,Uttar_Pradesh,Vrindavan,"Omex Eternity, Vrindavan - UPPCB","27-11-2025 09:00:00",27.5714090,77.6557570,NO2,12,12,12
India,Uttar_Pradesh,Vrindavan,"Omex Eternity, Vrindavan - UPPCB","27-11-2025 09:00:00",27.5714090,77.6557570,NH3,1,5,3
India,Uttarakhand,Dehradun,"Doon University, Dehradun - UKPCB","27-11-2025 09:00:00",30.269444,78.044167,NO2,1,6,2
India,Uttarakhand,Dehradun,"Doon University, Dehradun - UKPCB","27-11-2025 09:00:00",30.269444,78.044167,SO2,2,2,2
India,Uttarakhand,Kashipur,"Govt. Girls Inter College, Kashipur - UKPCB","27-11-2025 09:00:00",29.2124114,78.9611753,PM2.5,55,162,106
India,West_Bengal,Howrah,"Ghusuri, Howrah - WBPCB","27-11-2025 09:00:00",22.611968,88.347422,NO2,21,37,26
India,West_Bengal,Howrah,"Padmapukur, Howrah - WBPCB","27-11-2025 09:00:00",22.5687319,88.2797276,PM10,130,196,162
India,West_Bengal,Howrah,"Padmapukur, Howrah - WBPCB","27-11-2025 09:00:00",22.5687319,88.2797276,NO2,12,27,20
India,West_Bengal,Howrah,"Padmapukur, Howrah - WBPCB","27-11-2025 09:00:00",22.5687319,88.2797276,CO,4,62,14
India,West_Bengal,Howrah,"Padmapukur, Howrah - WBPCB","27-11-2025 09:00:00",22.5687319,88.2797276,OZONE,2,116,4
India,West_Bengal,Kolkata,"Ballygunge, Kolkata - WBPCB","27-11-2025 09:00:00",22.5367507,88.3638022,PM10,116,227,152
India,West_Bengal,Kolkata,"Bidhannagar, Kolkata - WBPCB","27-11-2025 09:00:00",22.58157048,88.41002457,NO2,8,24,13
India,Uttar_Pradesh,Moradabad,"Kashiram Nagar, Moradabad - UPPCB","27-11-2025 09:00:00",28.849399,78.742362,PM10,66,189,125
India,Uttar_Pradesh,Moradabad,"Kashiram Nagar, Moradabad - UPPCB","27-11-2025 09:00:00",28.849399,78.742362,CO,28,102,49
India,Uttar_Pradesh,Moradabad,"Transport Nagar, Moradabad - UPPCB","27-11-2025 09:00:00",28.802625,78.753728,CO,18,35,32
India,Uttar_Pradesh,Muzaffarnagar,"New Mandi, Muzaffarnagar - UPPCB","27-11-2025 09:00:00",29.4723508,77.7194031,NH3,8,15,12
India,Uttar_Pradesh,Muzaffarnagar,"New Mandi, Muzaffarnagar - UPPCB","27-11-2025 09:00:00",29.4723508,77.7194031,CO,32,112,47
India,Uttar_Pradesh,Noida,"Sector - 125, Noida - UPPCB","27-11-2025 09:00:00",28.5447608,77.3231257,PM2.5,221,500,369
India,West_Bengal,Durgapur,"Womens College_City Center, Durgapur - WBPCB (Formerly known as Sidhu Kanhu Indoor Stadium)","27-11-2025 09:00:00",23.549395,87.300496,SO2,2,71,29
India,West_Bengal,Durgapur,"Womens College_City Center, Durgapur - WBPCB (Formerly known as Sidhu Kanhu Indoor Stadium)","27-11-2025 09:00:00",23.549395,87.300496,OZONE,9,63,10
India,West_Bengal,Haldia,"Priyambada Housing Estate, Haldia - WBPCB","27-11-2025 09:00:00",22.06047,88.109737,SO2,13,18,15
India,West_Bengal,Howrah,"Belur Math, Howrah - WBPCB","27-11-2025 09:00:00",22.629801,88.352017,NH3,7,12,10
India,West_Bengal,Howrah,"Botanical Garden, Howrah - WBPCB","27-11-2025 09:00:00",22.554954,88.292568,OZONE,4,36,4
India,Uttarakhand,Rishikesh,"Shivaji Nagar, Rishikesh - UKPCB","27-11-2025 09:00:00",30.075911,78.2859547,NH3,6,16,8
India,Uttarakhand,Rishikesh,"Shivaji Nagar, Rishikesh - UKPCB","27-11-2025 09:00:00",30.075911,78.2859547,SO2,5,5,5
India,West_Bengal,Asansol,"Evelyn Lodge, Asansol - WBPCB","27-11-2025 09:00:00",23.6979360,86.9443950,PM2.5,66,260,137
India,West_Bengal,Asansol,"Evelyn Lodge, Asansol - WBPCB","27-11-2025 09:00:00",23.6979360,86.9443950,OZONE,7,55,14
India,West_Bengal,Asansol,"Mahabir Colliery, Asansol - WBPCB","27-11-2025 09:00:00",23.6181830,87.1057180,NH3,1,5,1
India,West_Bengal,Asansol,"Mahabir Colliery, Asansol - WBPCB","27-11-2025 09:00:00",23.6181830,87.1057180,CO,16,86,43
India,West_Bengal,Asansol,"Trivenidevi Bhalotia College, Asansol - WBPCB","27-11-2025 09:00:00",23.616515,87.119133,SO2,4,10,7
India,West_Bengal,Barrackpore,"SVSPA Campus, Barrackpore - WBPCB","27-11-2025 09:00:00",22.7605581,88.3617589,PM2.5,108,207,157
India,West_Bengal,Barrackpore,"SVSPA Campus, Barrackpore - WBPCB","27-11-2025 09:00:00",22.7605581,88.3617589,OZONE,3,64,6
India,West_Bengal,Durgapur,"PCBL Residential Complex, Durgapur - WBPCB","27-11-2025 09:00:00",23.5087640,87.3544400,PM10,62,136,95
India,West_Bengal,Durgapur,"PCBL Residential Complex, Durgapur - WBPCB","27-11-2025 09:00:00",23.5087640,87.3544400,SO2,4,5,4
India,Uttar_Pradesh,Noida,"Sector - 62, Noida - IMD","27-11-2025 09:00:00",28.6245479,77.3577104,PM2.5,142,429,329
India,Uttar_Pradesh,Noida,"Sector-116, Noida - UPPCB","27-11-2025 09:00:00",28.569230,77.393848,PM2.5,274,500,413
India,Uttar_Pradesh,Noida,"Sector-116, Noida - UPPCB","27-11-2025 09:00:00",28.569230,77.393848,NO2,43,119,75
India,Uttar_Pradesh,Noida,"Sector-116, Noida - UPPCB","27-11-2025 09:00:00",28.569230,77.393848,SO2,11,28,19
India,Uttar_Pradesh,Prayagraj,"Jhunsi, Prayagraj - UPPCB","27-11-2025 09:00:00",25.425602,81.917152,PM10,104,274,166
India,Uttar_Pradesh,Prayagraj,"Jhunsi, Prayagraj - UPPCB","27-11-2025 09:00:00",25.425602,81.917152,NH3,5,5,5
India,Uttar_Pradesh,Moradabad,"Buddhi Vihar, Moradabad - UPPCB","27-11-2025 09:00:00",28.83526,78.74460,PM2.5,42,249,122
India,Uttar_Pradesh,Moradabad,"Buddhi Vihar, Moradabad - UPPCB","27-11-2025 09:00:00",28.83526,78.74460,NO2,29,29,29
India,Uttar_Pradesh,Moradabad,"Buddhi Vihar, Moradabad - UPPCB","27-11-2025 09:00:00",28.83526,78.74460,NH3,5,5,5
India,Uttar_Pradesh,Moradabad,"Employment Office, Moradabad - UPPCB","27-11-2025 09:00:00",28.88528,78.73880,NO2,16,16,16
India,Uttar_Pradesh,Moradabad,"Jigar Colony, Moradabad - UPPCB","27-11-2025 09:00:00",28.856664,78.772638,PM2.5,65,131,90
India,Uttar_Pradesh,Moradabad,"Jigar Colony, Moradabad - UPPCB","27-11-2025 09:00:00",28.856664,78.772638,NH3,6,15,6
India,Uttar_Pradesh,Prayagraj,"Motilal Nehru NIT, Prayagraj - UPPCB","27-11-2025 09:00:00",25.494,81.863,NH3,8,8,8
India,Uttar_Pradesh,Prayagraj,"Motilal Nehru NIT, Prayagraj - UPPCB","27-11-2025 09:00:00",25.494,81.863,SO2,27,45,34
India,Uttar_Pradesh,Varanasi,"Ardhali Bazar, Varanasi - UPPCB","27-11-2025 09:00:00",25.3505986,82.9083074,CO,2,22,13
India,West_Bengal,Kolkata,"Fort William, Kolkata - WBPCB","27-11-2025 09:00:00",22.556640,88.342674,SO2,10,41,18
India,West_Bengal,Kolkata,"Jadavpur, Kolkata - WBPCB","27-11-2025 09:00:00",22.49929,88.36917,SO2,4,7,5
India,West_Bengal,Kolkata,"Rabindra Bharati University, Kolkata - WBPCB","27-11-2025 09:00:00",22.627847,88.380669,OZONE,2,129,14
India,West_Bengal,Kolkata,"Victoria, Kolkata - WBPCB","27-11-2025 09:00:00",22.5448082,88.3403691,PM2.5,233,344,306
India,West_Bengal,Kolkata,"Victoria, Kolkata - WBPCB","27-11-2025 09:00:00",22.5448082,88.3403691,PM10,128,182,149
India,Assam,Sivasagar,"Girls College, Sivasagar - PCBA","27-11-2025 09:00:00",26.987634,94.636574,CO,13,78,38
India,Bihar,Araria,"Kharahiya Basti, Araria - BSPCB","27-11-2025 09:00:00",26.146529,87.454184,NO2,1,84,24
India,Bihar,Arrah,"New DM Office, Arrah - BSPCB","27-11-2025 09:00:00",25.5626095,84.663264,SO2,8,10,10
India,Bihar,Arrah,"New DM Office, Arrah - BSPCB","27-11-2025 09:00:00",25.5626095,84.663264,CO,42,68,55
India,Bihar,Aurangabad,"Gurdeo Nagar, Aurangabad - BSPCB","27-11-2025 09:00:00",24.75746,84.366208,NH3,1,2,1
India,Bihar,Aurangabad,"Gurdeo Nagar, Aurangabad - BSPCB","27-11-2025 09:00:00",24.75746,84.366208,SO2,11,18,14
India,Bihar,Aurangabad,"Gurdeo Nagar, Aurangabad - BSPCB","27-11-2025 09:00:00",24.75746,84.366208,CO,101,103,102
India,Bihar,Begusarai,"Lohiyanagar, Begusarai - BSPCB","27-11-2025 09:00:00",25.42742023,86.13886079,PM2.5,19,153,41
India,"Andaman and Nicobar","Sri Vijaya Puram","Police Line, Sri Vijaya Puram - ANPCC","27-11-2025 09:00:00",11.654054,92.734055,OZONE,2,8,5
India,Andhra_Pradesh,Amaravati,"Secretariat, Amaravati - APPCB","27-11-2025 09:00:00",16.5150833,80.5181667,PM2.5,192,318,262
India,Andhra_Pradesh,Amaravati,"Secretariat, Amaravati - APPCB","27-11-2025 09:00:00",16.5150833,80.5181667,PM10,132,226,161
India,Andhra_Pradesh,Anantapur,"Gulzarpet, Anantapur - APPCB","27-11-2025 09:00:00",14.675886,77.593027,PM2.5,52,138,88
India,Andhra_Pradesh,Chittoor,"Gangineni Cheruvu, Chittoor - APPCB","27-11-2025 09:00:00",13.204880,79.097889,NO2,18,26,23
India,Andhra_Pradesh,Chittoor,"Gangineni Cheruvu, Chittoor - APPCB","27-11-2025 09:00:00",13.204880,79.097889,NH3,5,6,5
India,Andhra_Pradesh,Chittoor,"Gangineni Cheruvu, Chittoor - APPCB","27-11-2025 09:00:00",13.204880,79.097889,CO,10,54,33
India,Bihar,Munger,"Town Hall, Munger - BSPCB","27-11-2025 09:00:00",25.376776,86.471523,PM2.5,75,273,124
India,Bihar,Munger,"Town Hall, Munger - BSPCB","27-11-2025 09:00:00",25.376776,86.471523,NH3,5,7,6
India,Bihar,Munger,"Town Hall, Munger - BSPCB","27-11-2025 09:00:00",25.376776,86.471523,SO2,12,19,15
India,Bihar,Muzaffarpur,"Buddha Colony, Muzaffarpur - BSPCB","27-11-2025 09:00:00",26.11442,85.39813,PM10,52,112,90
India,Bihar,Muzaffarpur,"Buddha Colony, Muzaffarpur - BSPCB","27-11-2025 09:00:00",26.11442,85.39813,NO2,28,57,39
India,Bihar,Muzaffarpur,"MIT-Daudpur Kothi, Muzaffarpur - BSPCB","27-11-2025 09:00:00",26.1403345,85.3650192,PM2.5,77,98,94
India,Bihar,Muzaffarpur,"MIT-Daudpur Kothi, Muzaffarpur - BSPCB","27-11-2025 09:00:00",26.1403345,85.3650192,CO,44,66,49
India,Bihar,Muzaffarpur,"Muzaffarpur Collectorate, Muzaffarpur - BSPCB","27-11-2025 09:00:00",26.1209,85.3647,PM2.5,88,130,112
India,Andhra_Pradesh,Kadapa,"Yerramukkapalli, Kadapa - APPCB","27-11-2025 09:00:00",14.465052,78.824187,PM2.5,50,65,61
India,Andhra_Pradesh,Kadapa,"Yerramukkapalli, Kadapa - APPCB","27-11-2025 09:00:00",14.465052,78.824187,SO2,13,17,16
India,Andhra_Pradesh,Tirumala,"Toll Gate, Tirumala - APPCB","27-11-2025 09:00:00",13.67,79.35,PM2.5,98,237,179
India,Andhra_Pradesh,Tirumala,"Toll Gate, Tirumala - APPCB","27-11-2025 09:00:00",13.67,79.35,SO2,5,7,6
India,Andhra_Pradesh,Tirupati,"Vaikuntapuram, Tirupati - APPCB","27-11-2025 09:00:00",13.615387,79.409230,SO2,12,18,14
India,Andhra_Pradesh,Tirupati,"Vaikuntapuram, Tirupati - APPCB","27-11-2025 09:00:00",13.615387,79.409230,CO,20,31,24
India,Andhra_Pradesh,Vijayawada,"HB Colony, Vijayawada - APPCB","27-11-2025 09:00:00",16.536107,80.594233,PM10,71,147,86
India,Bihar,Begusarai,"Lohiyanagar, Begusarai - BSPCB","27-11-2025 09:00:00",25.42742023,86.13886079,OZONE,7,43,8
India,Bihar,Bhagalpur,"DM Office_Kachari Chowk, Bhagalpur - BSPCB","27-11-2025 09:00:00",25.251013,86.989001,PM2.5,38,63,53
India,Bihar,Bhagalpur,"DM Office_Kachari Chowk, Bhagalpur - BSPCB","27-11-2025 09:00:00",25.251013,86.989001,NH3,1,1,1
India,Bihar,Bhagalpur,"DM Office_Kachari Chowk, Bhagalpur - BSPCB","27-11-2025 09:00:00",25.251013,86.989001,CO,12,17,14
India,Bihar,"Bihar Sharif","D M Colony, Bihar Sharif - BSPCB","27-11-2025 09:00:00",25.204762,85.514960,PM10,32,113,69
India,Bihar,"Bihar Sharif","D M Colony, Bihar Sharif - BSPCB","27-11-2025 09:00:00",25.204762,85.514960,NO2,9,10,9
India,Assam,Nalbari,"Bata Chowk, Nalbari - PCBA","27-11-2025 09:00:00",26.446912,91.439057,PM2.5,10,73,41
India,Assam,Nalbari,"Bata Chowk, Nalbari - PCBA","27-11-2025 09:00:00",26.446912,91.439057,PM10,16,93,55
India,Assam,Nalbari,"Bata Chowk, Nalbari - PCBA","27-11-2025 09:00:00",26.446912,91.439057,SO2,6,9,8
India,Assam,Nalbari,"Bata Chowk, Nalbari - PCBA","27-11-2025 09:00:00",26.446912,91.439057,CO,20,27,22
India,Assam,Silchar,"Tarapur, Silchar - PCBA","27-11-2025 09:00:00",24.82827,92.79525,PM2.5,33,62,43
India,Assam,Sivasagar,"Girls College, Sivasagar - PCBA","27-11-2025 09:00:00",26.987634,94.636574,PM10,25,91,53
India,Assam,Byrnihat,"Central Academy for SFS, Byrnihat - PCBA","27-11-2025 09:00:00",26.071318,91.87488,PM10,NA,NA,NA
India,Assam,Guwahati,"IITG, Guwahati - PCBA","27-11-2025 09:00:00",26.2028636,91.70046436,NO2,1,8,4
India,Assam,Guwahati,"IITG, Guwahati - PCBA","27-11-2025 09:00:00",26.2028636,91.70046436,SO2,22,27,24
India,Assam,Guwahati,"LGBI Airport, Guwahati - PCBA","27-11-2025 09:00:00",26.10887,91.589544,OZONE,9,18,11
India,Assam,Guwahati,"Pan Bazaar, Guwahati - PCBA","27-11-2025 09:00:00",26.187500,91.744194,CO,6,82,36
India,Andhra_Pradesh,Vijayawada,"Rajiv Gandhi Park, Vijayawada - APPCB","27-11-2025 09:00:00",16.509717,80.612222,NO2,39,90,60
India,Andhra_Pradesh,Vijayawada,"Rajiv Gandhi Park, Vijayawada - APPCB","27-11-2025 09:00:00",16.509717,80.612222,SO2,10,19,14
India,Andhra_Pradesh,Vijayawada,"Rajiv Nagar, Vijayawada - APPCB","27-11-2025 09:00:00",16.554731,80.649110,OZONE,57,100,66
India,Andhra_Pradesh,Visakhapatnam,"GVM Corporation, Visakhapatnam - APPCB","27-11-2025 09:00:00",17.72,83.3,NO2,NA,NA,NA
India,Andhra_Pradesh,Visakhapatnam,"GVM Corporation, Visakhapatnam - APPCB","27-11-2025 09:00:00",17.72,83.3,CO,NA,NA,NA
India,Bihar,Buxar,"Charitra Van, Buxar - BSPCB","27-11-2025 09:00:00",25.567520,83.966379,PM10,46,148,118
India,Bihar,Chhapra,"Darshan Nagar, Chhapra - BSPCB","27-11-2025 09:00:00",25.7808257,84.7446768,PM2.5,25,87,58
India,Bihar,Chhapra,"Darshan Nagar, Chhapra - BSPCB","27-11-2025 09:00:00",25.7808257,84.7446768,SO2,19,48,25
India,Bihar,Gaya,"SFTI Kusdihra, Gaya - BSPCB","27-11-2025 09:00:00",24.762518,84.982348,PM2.5,31,59,38
India,Bihar,Katihar,"Mirchaibari, Katihar - BSPCB","27-11-2025 09:00:00",25.560083,87.553265,PM2.5,63,190,126
India,Bihar,Katihar,"Mirchaibari, Katihar - BSPCB","27-11-2025 09:00:00",25.560083,87.553265,PM10,59,121,99
India,Bihar,Manguraha,"Forest Rest House, Manguraha - BSPCB","27-11-2025 09:00:00",27.308328,84.531742,PM2.5,30,230,67
India,Delhi,Delhi,"Burari Crossing, Delhi - IMD","27-11-2025 09:00:00",28.7256504,77.2011573,CO,2,133,115
India,Delhi,Delhi,"CRRI Mathura Road, Delhi - IMD","27-11-2025 09:00:00",28.5512005,77.2735737,PM2.5,199,450,349
India,Delhi,Delhi,"CRRI Mathura Road, Delhi - IMD","27-11-2025 09:00:00",28.5512005,77.2735737,PM10,160,491,349
India,Delhi,Delhi,"CRRI Mathura Road, Delhi - IMD","27-11-2025 09:00:00",28.5512005,77.2735737,CO,2,161,160
India,Delhi,Delhi,"CRRI Mathura Road, Delhi - IMD","27-11-2025 09:00:00",28.5512005,77.2735737,OZONE,12,256,14
India,Delhi,Delhi,"Chandni Chowk, Delhi - IITM","27-11-2025 09:00:00",28.656756,77.227234,PM2.5,164,400,331
India,Delhi,Delhi,"Chandni Chowk, Delhi - IITM","27-11-2025 09:00:00",28.656756,77.227234,OZONE,5,98,5
India,Delhi,Delhi,"DTU, Delhi - CPCB","27-11-2025 09:00:00",28.7500499,77.1112615,SO2,29,33,30
India,Delhi,Delhi,"DTU, Delhi - CPCB","27-11-2025 09:00:00",28.7500499,77.1112615,CO,30,126,117
India,Delhi,Delhi,"Dr. Karni Singh Shooting Range, Delhi - DPCC","27-11-2025 09:00:00",28.498571,77.264840,PM2.5,197,435,342
India,Delhi,Delhi,"Dr. Karni Singh Shooting Range, Delhi - DPCC","27-11-2025 09:00:00",28.498571,77.264840,OZONE,7,74,13
India,Chhattisgarh,Bhilai,"Civic Center, Bhilai - Bhilai Steel Plant","27-11-2025 09:00:00",21.185571,81.343175,NH3,4,4,4
India,Chhattisgarh,Bhilai,"Civic Center, Bhilai - Bhilai Steel Plant","27-11-2025 09:00:00",21.185571,81.343175,SO2,7,12,9
India,Chhattisgarh,Bhilai,"Civic Center, Bhilai - Bhilai Steel Plant","27-11-2025 09:00:00",21.185571,81.343175,CO,21,31,22
India,Chhattisgarh,Bhilai,"Civic Center, Bhilai - Bhilai Steel Plant","27-11-2025 09:00:00",21.185571,81.343175,OZONE,7,13,11
India,Chhattisgarh,Bhilai,"Hathkhoj, Bhilai - CECB","27-11-2025 09:00:00",21.224231,81.408350,SO2,24,100,54
India,Chhattisgarh,Bhilai,"Hathkhoj, Bhilai - CECB","27-11-2025 09:00:00",21.224231,81.408350,OZONE,6,31,9
India,Chhattisgarh,Bilaspur,"Mangala, Bilaspur - NTPC","27-11-2025 09:00:00",22.08815,82.13737,NO2,14,66,23
India,Chhattisgarh,Chhal,"Nawapara SECL Colony, Chhal - CECB","27-11-2025 09:00:00",22.118125,83.140608,PM2.5,50,94,63
India,Chhattisgarh,Korba,"Rampur, Korba - CECB","27-11-2025 09:00:00",22.368195,82.746431,CO,19,34,27
India,Bihar,Muzaffarpur,"Muzaffarpur Collectorate, Muzaffarpur - BSPCB","27-11-2025 09:00:00",26.1209,85.3647,NO2,9,21,14
India,Bihar,Patna,"DRM Office Danapur, Patna - BSPCB","27-11-2025 09:00:00",25.586562,85.043586,PM2.5,77,301,174
India,Bihar,Patna,"DRM Office Danapur, Patna - BSPCB","27-11-2025 09:00:00",25.586562,85.043586,CO,16,165,54
India,Bihar,Patna,"DRM Office Danapur, Patna - BSPCB","27-11-2025 09:00:00",25.586562,85.043586,OZONE,7,62,7
India,Bihar,Patna,"Govt. High School Shikarpur, Patna - BSPCB","27-11-2025 09:00:00",25.592539,85.227158,OZONE,8,12,10
India,Bihar,Patna,"IGSC Planetarium Complex, Patna - BSPCB","27-11-2025 09:00:00",25.610369,85.132568,PM2.5,59,313,200
India,Bihar,Patna,"Muradpur, Patna - BSPCB","27-11-2025 09:00:00",25.619651,85.147382,PM10,102,164,131
India,Chhattisgarh,Raipur,"Bhatagaon New ISBT, Raipur - CECB","27-11-2025 09:00:00",21.219665,81.630094,PM10,NA,NA,NA
India,Chhattisgarh,Raipur,"Bhatagaon New ISBT, Raipur - CECB","27-11-2025 09:00:00",21.219665,81.630094,SO2,NA,NA,NA
India,Chhattisgarh,Raipur,"Bhatagaon New ISBT, Raipur - CECB","27-11-2025 09:00:00",21.219665,81.630094,CO,NA,NA,NA
India,Chhattisgarh,Raipur,"Siltara Phase-II, Raipur - CECB","27-11-2025 09:00:00",21.371751,81.664929,NO2,9,22,15
India,Chhattisgarh,Raipur,"Siltara Phase-II, Raipur - CECB","27-11-2025 09:00:00",21.371751,81.664929,SO2,1,11,5
India,Chhattisgarh,Raipur,"Siltara Phase-II, Raipur - CECB","27-11-2025 09:00:00",21.371751,81.664929,OZONE,3,3,3
India,Chhattisgarh,Tumidih,"OP Jindal Industrial Park, Tumidih - CECB","27-11-2025 09:00:00",22.06631475,83.33820077,PM10,55,127,87
India,Chhattisgarh,Tumidih,"OP Jindal Industrial Park, Tumidih - CECB","27-11-2025 09:00:00",22.06631475,83.33820077,NO2,25,69,38
India,Chhattisgarh,Tumidih,"OP Jindal Industrial Park, Tumidih - CECB","27-11-2025 09:00:00",22.06631475,83.33820077,CO,21,42,30
India,Chhattisgarh,Korba,"Urja Nagar, Korba - CECB","27-11-2025 09:00:00",22.348441,82.549611,NO2,29,61,46
India,Chhattisgarh,Korba,"Urja Nagar, Korba - CECB","27-11-2025 09:00:00",22.348441,82.549611,NH3,1,2,2
India,Chhattisgarh,Korba,"Urja Nagar, Korba - CECB","27-11-2025 09:00:00",22.348441,82.549611,OZONE,35,36,35
India,Chhattisgarh,Kunjemura,"OP Jindal School, Kunjemura - CECB","27-11-2025 09:00:00",22.126650,83.483212,NO2,15,40,28
India,Chhattisgarh,Kunjemura,"OP Jindal School, Kunjemura - CECB","27-11-2025 09:00:00",22.126650,83.483212,CO,16,34,24
India,Chhattisgarh,Milupara,"Govt. Higher Secondary School, Milupara - CECB","27-11-2025 09:00:00",22.1910172,83.5197009,NH3,1,2,2
India,Chhattisgarh,Milupara,"Govt. Higher Secondary School, Milupara - CECB","27-11-2025 09:00:00",22.1910172,83.5197009,OZONE,9,170,21
India,Bihar,Patna,"Rajbansi Nagar, Patna - BSPCB","27-11-2025 09:00:00",25.599486,85.113666,NH3,1,9,5
India,Bihar,Patna,"Samanpura, Patna - BSPCB","27-11-2025 09:00:00",25.596727,85.085624,PM2.5,128,312,251
India,Bihar,Purnia,"Mariam Nagar, Purnia - BSPCB","27-11-2025 09:00:00",25.366336,87.117468,NO2,5,7,6
India,Bihar,Purnia,"Mariam Nagar, Purnia - BSPCB","27-11-2025 09:00:00",25.366336,87.117468,OZONE,21,45,22
India,Chandigarh,Chandigarh,"Sector-53, Chandigarh - CPCC","27-11-2025 09:00:00",30.719859,76.738637,NH3,5,7,6
India,Chhattisgarh,Bhilai,"32Bungalows, Bhilai - CECB","27-11-2025 09:00:00",21.194815,81.314770,OZONE,3,97,10
India,Chhattisgarh,Bhilai,"Civic Center, Bhilai - Bhilai Steel Plant","27-11-2025 09:00:00",21.185571,81.343175,PM2.5,51,122,74
India,Delhi,Delhi,"Anand Vihar, Delhi - DPCC","27-11-2025 09:00:00",28.647622,77.3158090,NO2,52,170,118
India,Delhi,Delhi,"Anand Vihar, Delhi - DPCC","27-11-2025 09:00:00",28.647622,77.3158090,OZONE,4,21,18
India,Delhi,Delhi,"Bawana, Delhi - DPCC","27-11-2025 09:00:00",28.776200,77.051074,NO2,15,115,58
India,Delhi,Delhi,"Burari Crossing, Delhi - IMD","27-11-2025 09:00:00",28.7256504,77.2011573,NO2,3,153,73
India,Bihar,Saharsa,"Police Line, Saharsa - BSPCB","27-11-2025 09:00:00",25.892357,86.590325,NO2,6,8,7
India,Bihar,Samastipur,"DM Office_Kasipur, Samastipur - BSPCB","27-11-2025 09:00:00",25.859655,85.77944,NO2,7,10,9
India,Bihar,Sasaram,"Dada Peer, Sasaram - BSPCB","27-11-2025 09:00:00",24.952822,84.002396,PM2.5,40,98,60
India,Delhi,Delhi,"Shadipur, Delhi - CPCB","27-11-2025 09:00:00",28.6514781,77.1473105,NO2,54,200,119
India,Delhi,Delhi,"Shadipur, Delhi - CPCB","27-11-2025 09:00:00",28.6514781,77.1473105,CO,34,137,123
India,Delhi,Delhi,"Sirifort, Delhi - CPCB","27-11-2025 09:00:00",28.5504249,77.2159377,PM2.5,300,398,350
India,Delhi,Delhi,"Sonia Vihar, Delhi - DPCC","27-11-2025 09:00:00",28.710508,77.249485,PM2.5,270,422,353
India,Delhi,Delhi,"Sonia Vihar, Delhi - DPCC","27-11-2025 09:00:00",28.710508,77.249485,NO2,22,108,57
India,Delhi,Delhi,"Sonia Vihar, Delhi - DPCC","27-11-2025 09:00:00",28.710508,77.249485,SO2,6,26,12
India,Delhi,Delhi,"Sonia Vihar, Delhi - DPCC","27-11-2025 09:00:00",28.710508,77.249485,CO,72,145,119
India,Delhi,Delhi,"Sri Aurobindo Marg, Delhi - DPCC","27-11-2025 09:00:00",28.531346,77.190156,PM10,130,234,180
India,Delhi,Delhi,"Jawaharlal Nehru Stadium, Delhi - DPCC","27-11-2025 09:00:00",28.580280,77.233829,PM2.5,253,439,357
India,Delhi,Delhi,"Jawaharlal Nehru Stadium, Delhi - DPCC","27-11-2025 09:00:00",28.580280,77.233829,CO,40,175,160
India,Delhi,Delhi,"Lodhi Road, Delhi - IMD","27-11-2025 09:00:00",28.5918245,77.2273074,OZONE,13,207,16
India,Delhi,Delhi,"Major Dhyan Chand National Stadium, Delhi - DPCC","27-11-2025 09:00:00",28.611281,77.237738,NO2,55,198,103
India,Delhi,Delhi,"Major Dhyan Chand National Stadium, Delhi - DPCC","27-11-2025 09:00:00",28.611281,77.237738,SO2,19,32,24
India,Delhi,Delhi,"Major Dhyan Chand National Stadium, Delhi - DPCC","27-11-2025 09:00:00",28.611281,77.237738,CO,38,148,132
India,Delhi,Delhi,"Mandir Marg, Delhi - DPCC","27-11-2025 09:00:00",28.636429,77.201067,NH3,13,43,28
India,Delhi,Delhi,"Punjabi Bagh, Delhi - DPCC","27-11-2025 09:00:00",28.674045,77.131023,NH3,4,6,5
India,Delhi,Delhi,"Pusa, Delhi - DPCC","27-11-2025 09:00:00",28.639652,77.146275,NH3,3,8,5
India,Delhi,Delhi,"Pusa, Delhi - IMD","27-11-2025 09:00:00",28.636110,77.173332,PM2.5,197,421,342
India,Delhi,Delhi,"Pusa, Delhi - IMD","27-11-2025 09:00:00",28.636110,77.173332,CO,47,178,178
India,Delhi,Delhi,"R K Puram, Delhi - DPCC","27-11-2025 09:00:00",28.563262,77.186937,PM10,171,483,288
India,Delhi,Delhi,"Rohini, Delhi - DPCC","27-11-2025 09:00:00",28.732528,77.119920,PM2.5,277,500,410
India,Delhi,Delhi,"Rohini, Delhi - DPCC","27-11-2025 09:00:00",28.732528,77.119920,OZONE,5,304,30
India,Delhi,Delhi,"Mundka, Delhi - DPCC","27-11-2025 09:00:00",28.684678,77.076574,NH3,9,18,14
India,Delhi,Delhi,"Mundka, Delhi - DPCC","27-11-2025 09:00:00",28.684678,77.076574,CO,22,128,102
India,Delhi,Delhi,"NSIT Dwarka, Delhi - CPCB","27-11-2025 09:00:00",28.60909,77.0325413,PM10,171,424,243
India,Delhi,Delhi,"NSIT Dwarka, Delhi - CPCB","27-11-2025 09:00:00",28.60909,77.0325413,OZONE,12,50,12
India,Delhi,Delhi,"Najafgarh, Delhi - DPCC","27-11-2025 09:00:00",28.570173,76.933762,SO2,4,43,13
India,Delhi,Delhi,"Narela, Delhi - DPCC","27-11-2025 09:00:00",28.822836,77.101981,PM2.5,230,500,393
India,Gujarat,Ahmedabad,"Raikhad, Ahmedabad - IITM","27-11-2025 09:00:00",23.020509,72.579261,NO2,22,99,41
India,Gujarat,Ahmedabad,"Rakhial, Ahmedabad - IITM","27-11-2025 09:00:00",23.016834,72.625775,PM10,98,156,123
India,Gujarat,Ahmedabad,"Rakhial, Ahmedabad - IITM","27-11-2025 09:00:00",23.016834,72.625775,NH3,3,6,4
India,Gujarat,Ahmedabad,"SAC ISRO Satellite, Ahmedabad - IITM","27-11-2025 09:00:00",23.023389,72.515201,CO,1,106,10
India,Delhi,Delhi,"Nehru Nagar, Delhi - DPCC","27-11-2025 09:00:00",28.567890,77.250515,NH3,13,26,19
India,Delhi,Delhi,"Okhla Phase-2, Delhi - DPCC","27-11-2025 09:00:00",28.530785,77.271255,CO,46,138,134
India,Delhi,Delhi,"Patparganj, Delhi - DPCC","27-11-2025 09:00:00",28.623763,77.287209,PM2.5,223,500,365
India,Delhi,Delhi,"Vivek Vihar, Delhi - DPCC","27-11-2025 09:00:00",28.672342,77.315260,OZONE,5,194,6
India,Delhi,Delhi,"Wazirpur, Delhi - DPCC","27-11-2025 09:00:00",28.699793,77.165453,SO2,4,22,14
India,Delhi,Delhi,"Wazirpur, Delhi - DPCC","27-11-2025 09:00:00",28.699793,77.165453,OZONE,4,155,10
India,Delhi,Delhi,"Dwarka-Sector 8, Delhi - DPCC ","27-11-2025 09:00:00",28.5710274,77.0719006,SO2,17,50,31
India,Delhi,Delhi,"IGI Airport (T3), Delhi - IMD","27-11-2025 09:00:00",28.5627763,77.1180053,PM2.5,110,366,285
India,Gujarat,Ahmedabad,"Gyaspur, Ahmedabad - IITM","27-11-2025 09:00:00",22.977134,72.553024,PM2.5,68,251,124
India,Gujarat,Ahmedabad,"Gyaspur, Ahmedabad - IITM","27-11-2025 09:00:00",22.977134,72.553024,OZONE,17,47,25
India,Gujarat,Surat,"Science Center, Surat - SMC","27-11-2025 09:00:00",21.170046,72.795405,PM2.5,30,75,46
India,Gujarat,Vapi,"Phase-1 GIDC, Vapi - GPCB","27-11-2025 09:00:00",20.362421,72.918013,PM10,29,130,71
India,Gujarat,Vatva,"Phase-4 GIDC, Vatva - GPCB","27-11-2025 09:00:00",22.969611,72.643500,NH3,3,7,6
India,Gujarat,Vatva,"Phase-4 GIDC, Vatva - GPCB","27-11-2025 09:00:00",22.969611,72.643500,CO,10,34,11
India,Haryana,Ambala,"Patti Mehar, Ambala - HSPCB","27-11-2025 09:00:00",30.379589,76.778328,OZONE,48,52,50
India,Haryana,Bahadurgarh,"Arya Nagar, Bahadurgarh - HSPCB","27-11-2025 09:00:00",28.6701,76.9254,PM2.5,63,324,222
India,Haryana,Bahadurgarh,"Arya Nagar, Bahadurgarh - HSPCB","27-11-2025 09:00:00",28.6701,76.9254,NH3,12,13,13
India,Haryana,Bahadurgarh,"Arya Nagar, Bahadurgarh - HSPCB","27-11-2025 09:00:00",28.6701,76.9254,SO2,7,7,7
India,Gujarat,Ahmedabad,"SAC ISRO Satellite, Ahmedabad - IITM","27-11-2025 09:00:00",23.023389,72.515201,OZONE,1,58,20
India,Gujarat,Ahmedabad,"SVPI Airport Hansol, Ahmedabad - IITM","27-11-2025 09:00:00",23.076793,72.627874,NH3,3,6,5
India,Gujarat,Ankleshwar,"GIDC, Ankleshwar - GPCB","27-11-2025 09:00:00",21.613267,73.010555,NO2,21,25,22
India,Gujarat,Gandhinagar,"IIPHG Lekawada, Gandhinagar - IITM","27-11-2025 09:00:00",23.243639,72.68994,PM2.5,119,168,144
India,Gujarat,Gandhinagar,"IIPHG Lekawada, Gandhinagar - IITM","27-11-2025 09:00:00",23.243639,72.68994,NH3,2,3,2
India,Gujarat,Gandhinagar,"IIPHG Lekawada, Gandhinagar - IITM","27-11-2025 09:00:00",23.243639,72.68994,CO,7,58,17
India,Gujarat,Nandesari,"GIDC, Nandesari - Nandesari Ind. Association","27-11-2025 09:00:00",22.410802,73.097923,PM10,136,243,170
India,Haryana,Jind,"Police Lines, Jind - HSPCB","27-11-2025 09:00:00",29.307814,76.337619,PM10,102,199,133
India,Haryana,Kaithal,"Rishi Nagar, Kaithal - HSPCB","27-11-2025 09:00:00",29.8006,76.4155,PM10,76,129,112
India,Haryana,Kaithal,"Rishi Nagar, Kaithal - HSPCB","27-11-2025 09:00:00",29.8006,76.4155,NO2,17,33,30
India,Haryana,Kurukshetra,"Sector-7, Kurukshetra - HSPCB","27-11-2025 09:00:00",29.966942,76.875879,PM2.5,110,278,226
India,Haryana,Kurukshetra,"Sector-7, Kurukshetra - HSPCB","27-11-2025 09:00:00",29.966942,76.875879,PM10,106,179,153
India,Haryana,Mandikhera,"General Hospital, Mandikhera - HSPCB","27-11-2025 09:00:00",27.9002,76.9938,PM2.5,83,212,153
India,Haryana,Mandikhera,"General Hospital, Mandikhera - HSPCB","27-11-2025 09:00:00",27.9002,76.9938,PM10,92,150,127
India,Haryana,Mandikhera,"General Hospital, Mandikhera - HSPCB","27-11-2025 09:00:00",27.9002,76.9938,NO2,19,23,21
India,Haryana,Ballabgarh,"Nathu Colony, Ballabgarh - HSPCB","27-11-2025 09:00:00",28.3419248,77.319699,SO2,NA,NA,NA
India,Haryana,"Charkhi Dadri","Mini Secretariat, Charkhi Dadri - HSPCB","27-11-2025 09:00:00",28.593883,76.270653,NO2,9,22,15
India,Haryana,"Charkhi Dadri","Mini Secretariat, Charkhi Dadri - HSPCB","27-11-2025 09:00:00",28.593883,76.270653,SO2,10,11,10
India,Haryana,"Charkhi Dadri","Mini Secretariat, Charkhi Dadri - HSPCB","27-11-2025 09:00:00",28.593883,76.270653,OZONE,14,17,16
India,Haryana,Dharuhera,"Municipal Corporation Office, Dharuhera -  HSPCB","27-11-2025 09:00:00",28.206800,76.799700,PM10,120,419,237
India,Haryana,Dharuhera,"Municipal Corporation Office, Dharuhera -  HSPCB","27-11-2025 09:00:00",28.206800,76.799700,NH3,9,26,19
India,Haryana,Faridabad,"New Industrial Town, Faridabad - HSPCB","27-11-2025 09:00:00",28.39072,77.30059,NO2,23,27,25
India,Haryana,Faridabad,"New Industrial Town, Faridabad - HSPCB","27-11-2025 09:00:00",28.39072,77.30059,NH3,11,12,11
India,Haryana,Faridabad,"New Industrial Town, Faridabad - HSPCB","27-11-2025 09:00:00",28.39072,77.30059,SO2,8,9,8
India,Haryana,Faridabad,"Sector 30, Faridabad - HSPCB","27-11-2025 09:00:00",28.4417,77.3217,CO,59,64,62
India,Haryana,Fatehabad,"Huda Sector, Fatehabad - HSPCB","27-11-2025 09:00:00",29.503664,75.467934,PM10,92,150,112
India,Haryana,Mandikhera,"General Hospital, Mandikhera - HSPCB","27-11-2025 09:00:00",27.9002,76.9938,NH3,13,14,13
India,Haryana,Narnaul,"Shastri Nagar, Narnaul - HSPCB","27-11-2025 09:00:00",28.060249,76.113115,PM2.5,87,303,206
India,Haryana,Narnaul,"Shastri Nagar, Narnaul - HSPCB","27-11-2025 09:00:00",28.060249,76.113115,SO2,6,7,6
India,Haryana,Narnaul,"Shastri Nagar, Narnaul - HSPCB","27-11-2025 09:00:00",28.060249,76.113115,OZONE,4,8,4
India,Haryana,"Yamuna Nagar","Gobind Pura, Yamuna Nagar - HSPCB","27-11-2025 09:00:00",30.1480566,77.2893471,CO,1,88,31
India,Jharkhand,Dhanbad,"Sardar Patel Nagar, Dhanbad - JSPCB","27-11-2025 09:00:00",23.80569,86.44268,PM2.5,24,235,100
India,Jharkhand,Dhanbad,"Sardar Patel Nagar, Dhanbad - JSPCB","27-11-2025 09:00:00",23.80569,86.44268,PM10,68,222,118
India,Haryana,Gurugram,"Sector-51, Gurugram - HSPCB","27-11-2025 09:00:00",28.4227,77.0667,NO2,NA,NA,NA
India,Haryana,Gurugram,"Sector-51, Gurugram - HSPCB","27-11-2025 09:00:00",28.4227,77.0667,SO2,NA,NA,NA
India,Haryana,Gurugram,"Teri Gram, Gurugram - HSPCB","27-11-2025 09:00:00",28.4275,77.1465,SO2,1,9,5
India,Haryana,Hisar,"Urban Estate-II, Hisar - HSPCB","27-11-2025 09:00:00",29.140560,75.744941,CO,NA,NA,NA
India,Haryana,Sonipat,"Murthal, Sonipat - HSPCB","27-11-2025 09:00:00",29.027200,77.062100,NO2,19,54,42
India,Karnataka,Bengaluru,"Silk Board, Bengaluru - KSPCB","27-11-2025 09:00:00",12.917348,77.622813,SO2,7,11,9
India,Karnataka,Chamarajanagar,"Urban, Chamarajanagar - KSPCB","27-11-2025 09:00:00",11.55358,76.55521,NH3,1,3,2
India,Karnataka,Chamarajanagar,"Urban, Chamarajanagar - KSPCB","27-11-2025 09:00:00",11.55358,76.55521,CO,15,120,31
India,Karnataka,Chikkamagaluru,"Kalyana Nagara, Chikkamagaluru - KSPCB","27-11-2025 09:00:00",13.328028,75.797056,NO2,13,23,21
India,Karnataka,Chikkamagaluru,"Kalyana Nagara, Chikkamagaluru - KSPCB","27-11-2025 09:00:00",13.328028,75.797056,NH3,2,3,3
India,Karnataka,Chikkamagaluru,"Kalyana Nagara, Chikkamagaluru - KSPCB","27-11-2025 09:00:00",13.328028,75.797056,CO,11,102,11
India,Karnataka,Chikkamagaluru,"Kalyana Nagara, Chikkamagaluru - KSPCB","27-11-2025 09:00:00",13.328028,75.797056,OZONE,11,54,11
India,Karnataka,Davanagere,"Devaraj Urs Badavane, Davanagere - KSPCB","27-11-2025 09:00:00",14.475800,75.905200,PM10,NA,NA,NA
India,Karnataka,Dharwad,"Kalabhavan, Dharwad - KSPCB","27-11-2025 09:00:00",15.459706,75.008381,PM2.5,66,72,69
India,Karnataka,Bagalkot,"Vidayagiri, Bagalkot - KSPCB","27-11-2025 09:00:00",16.172806,75.659694,SO2,7,7,7
India,Karnataka,Belgaum,"Ramteerth Nagar, Belgaum - KSPCB","27-11-2025 09:00:00",15.888653,74.541751,NO2,26,104,52
India,Karnataka,Bengaluru,"BTM Layout, Bengaluru - CPCB","27-11-2025 09:00:00",12.9135218,77.5950804,PM2.5,63,116,79
India,Karnataka,Bengaluru,"BTM Layout, Bengaluru - CPCB","27-11-2025 09:00:00",12.9135218,77.5950804,SO2,19,20,19
India,Karnataka,Bengaluru,"BTM Layout, Bengaluru - CPCB","27-11-2025 09:00:00",12.9135218,77.5950804,CO,45,52,51
India,Karnataka,Bengaluru,"BWSSB Kadabesanahalli, Bengaluru - CPCB","27-11-2025 09:00:00",12.9352049,77.6814488,NO2,NA,NA,NA
India,Karnataka,Bengaluru,"BWSSB Kadabesanahalli, Bengaluru - CPCB","27-11-2025 09:00:00",12.9352049,77.6814488,NH3,NA,NA,NA
India,Karnataka,Bengaluru,"City Railway Station, Bengaluru - KSPCB","27-11-2025 09:00:00",12.9756843,77.5660749,PM10,87,88,88
India,Kerala,Kannur,"Thavakkara, Kannur - Kerala PCB","27-11-2025 09:00:00",11.875000,75.373200,OZONE,28,32,28
India,Kerala,Kollam,"Polayathode, Kollam - Kerala PCB","27-11-2025 09:00:00",8.8787,76.6073,NH3,1,1,1
India,Kerala,Thiruvananthapuram,"Kariavattom, Thiruvananthapuram - Kerala PCB","27-11-2025 09:00:00",8.563700,76.886500,PM2.5,32,36,34
India,Kerala,Thiruvananthapuram,"Kariavattom, Thiruvananthapuram - Kerala PCB","27-11-2025 09:00:00",8.563700,76.886500,NH3,1,1,1
India,Kerala,Thiruvananthapuram,"Plammoodu, Thiruvananthapuram - Kerala PCB","27-11-2025 09:00:00",8.5149093,76.9435879,PM2.5,NA,NA,NA
India,Kerala,Thrissur,"Corporation Ground, Thrissur - Kerala PCB","27-11-2025 09:00:00",10.532400,76.215900,SO2,NA,NA,NA
India,Karnataka,Bengaluru,"Kasturi Nagar, Bengaluru - KSPCB","27-11-2025 09:00:00",13.003872,77.664217,SO2,NA,NA,NA
India,Karnataka,Bengaluru,"Peenya, Bengaluru - CPCB","27-11-2025 09:00:00",13.0270199,77.494094,NH3,6,7,6
India,Karnataka,Bengaluru,"Peenya, Bengaluru - CPCB","27-11-2025 09:00:00",13.0270199,77.494094,SO2,5,13,8
India,Karnataka,Bengaluru,"Peenya, Bengaluru - CPCB","27-11-2025 09:00:00",13.0270199,77.494094,CO,20,57,31
India,Karnataka,Bengaluru,"RVCE-Mailasandra, Bengaluru - KSPCB","27-11-2025 09:00:00",12.921418,77.502466,PM10,40,145,112
India,Karnataka,Bengaluru,"RVCE-Mailasandra, Bengaluru - KSPCB","27-11-2025 09:00:00",12.921418,77.502466,NH3,3,5,4
India,Karnataka,Bengaluru,"Sanegurava Halli, Bengaluru - KSPCB","27-11-2025 09:00:00",12.990328,77.5431385,SO2,7,7,7
India,Karnataka,Gadag,"Panchal Nagar, Gadag - KSPCB","27-11-2025 09:00:00",15.411456,75.638133,PM2.5,NA,NA,NA
India,Karnataka,Hubballi,"Lingaraj Nagar, Hubballi - KSPCB","27-11-2025 09:00:00",15.3714823,75.1160168,OZONE,12,24,13
India,Karnataka,Kalaburagi,"Lal Bahadur Shastri Nagar, Kalaburagi - KSPCB","27-11-2025 09:00:00",17.321993,76.822628,PM2.5,34,72,47
India,Karnataka,Kalaburagi,"Lal Bahadur Shastri Nagar, Kalaburagi - KSPCB","27-11-2025 09:00:00",17.321993,76.822628,NH3,1,1,1
India,Karnataka,Shivamogga,"Vinoba Nagara, Shivamogga - KSPCB","27-11-2025 09:00:00",13.940000,75.555917,PM10,34,65,41
India,Karnataka,Shivamogga,"Vinoba Nagara, Shivamogga - KSPCB","27-11-2025 09:00:00",13.940000,75.555917,OZONE,23,69,49
India,Karnataka,Yadgir,"Collector Office, Yadgir - KSPCB","27-11-2025 09:00:00",16.7602,77.1428,SO2,11,35,16
India,Kerala,Kannur,"Thavakkara, Kannur - Kerala PCB","27-11-2025 09:00:00",11.875000,75.373200,PM10,62,66,63
India,Karnataka,Bengaluru,"Hebbal, Bengaluru - KSPCB","27-11-2025 09:00:00",13.029152,77.585901,CO,10,40,21
